[{"name":"УРАЛСИБ банк Филиал в г. Уфа","address":"город Уфа, улица Революционная, дом 41","country":"Россия","locality":"город Уфа","street":"улица Революционная","house":"41","phones":[{"number":" +7 (800) 2505757","for_people":"для физ. лиц"},{"number":" +7 (800) 7007716","for_people":"для юр. лиц"}],"info_p":"https://www.uralsib.ru/office-atm/office/data/4569","workt":"Пн-Пт 09:00-19:00, без перерыва; Сб 10:00-16:00, перерыв 13:00-13:30","lon":"54.736727","lat":"55.949897","rubric_id":["184105398","184105406"]},{"name":"УРАЛСИБ банк Дополнительный офис \"Центр клиентского обслуживания\"","address":"город Уфа, улица Крупской, дом 9","country":"Россия","locality":"город Уфа","street":"улица Крупской","house":"9","phones":[{"number":" +7 (800) 2505757","for_people":"для физ. лиц"},{"number":" +7 (800) 7007716","for_people":"для юр. лиц"}],"info_p":"https://www.uralsib.ru/office-atm/office/data/4570","workt":"Пн-Пт 09:00-20:00, без перерыва; Сб 10:00-16:00, перерыв 13:00-13:30","lon":"54.727422","lat":"55.950247","rubric_id":["184105398","184105406"]},{"name":"УРАЛСИБ банк Дополнительный офис Отделение \"Советское\"","address":"город Уфа, проспект Октября, дом 29","country":"Россия","locality":"город Уфа","street":"проспект Октября","house":"29","phones":[{"number":" +7 (800) 2505757","for_people":"для физ. лиц"},{"number":" +7 (800) 7007716","for_people":"для юр. лиц"}],"info_p":"https://www.uralsib.ru/office-atm/office/data/4571","workt":"Пн-Пт 09:00-20:00, без перерыва; Сб 10:00-16:00, без перерыва","lon":"54.749424","lat":"55.99554","rubric_id":["184105398","184105406"]},{"name":"УРАЛСИБ банк Дополнительный офис Отделение \"Октябрьское\"","address":"город Уфа, проспект Октября, дом 3","country":"Россия","locality":"город Уфа","street":"проспект Октября","house":"3","phones":[{"number":" +7 (800) 2505757","for_people":"для физ. лиц"},{"number":" +7 (800) 7007716","for_people":"для юр. лиц"}],"info_p":"https://www.uralsib.ru/office-atm/office/data/4572","workt":"Пн-Пт 09:00-20:00, без перерыва","lon":"54.740911","lat":"55.985317","rubric_id":["184105398","184105406"]},{"name":"УРАЛСИБ банк Дополнительный офис \"Затон\"","address":"город Уфа, улица Ахметова, дом 318/1","country":"Россия","locality":"город Уфа","street":"улица Ахметова","house":"318","phones":[{"number":" +7 (800) 2505757","for_people":"для физ. лиц"},{"number":" +7 (800) 7007716","for_people":"для юр. лиц"}],"info_p":"https://www.uralsib.ru/office-atm/office/data/4573","workt":"Пн-Пт 09:00-19:00, без перерыва; Сб 10:00-16:00, перерыв 13:00-13:30","lon":"54.787557","lat":"55.884697","rubric_id":["184105398","184105406"]},{"name":"УРАЛСИБ банк Дополнительный офис \"Зелёная роща\"","address":"город Уфа, улица Менделеева, дом 134","country":"Россия","locality":"город Уфа","street":"улица Менделеева","house":"134","phones":[{"number":" +7 (800) 2505757","for_people":"для физ. лиц"},{"number":" +7 (800) 7007716","for_people":"для юр. лиц"}],"info_p":"https://www.uralsib.ru/office-atm/office/data/4574","workt":"Пн-Пт 09:00-20:00, без перерыва; Сб 10:00-16:00, без перерыва","lon":"54.716866","lat":"56.00976","rubric_id":["184105398","184105406"]},{"name":"УРАЛСИБ банк Дополнительный офис \"Гостиный двор\"","address":"город Уфа, площадь Верхнеторговая, дом 1","country":"Россия","locality":"город Уфа","street":"площадь Верхнеторговая","house":"1","phones":[{"number":" +7 (800) 2505757","for_people":"для физ. лиц"},{"number":" +7 (800) 7007716","for_people":"для юр. лиц"}],"info_p":"https://www.uralsib.ru/office-atm/office/data/4575","workt":"Пн-Пт 10:00-20:00; Сб 10:00-16:00","lon":"54.724833","lat":"55.944174","rubric_id":["184105398","184105406"]},{"name":"УРАЛСИБ банк Дополнительный офис Отделение \"Нефтехимическое\"","address":"город Уфа, улица Мира, дом 9/3","country":"Россия","locality":"город Уфа","street":"улица Мира","house":"9","phones":[{"number":" +7 (800) 2505757","for_people":"для физ. лиц"},{"number":" +7 (800) 7007716","for_people":"для юр. лиц"}],"info_p":"https://www.uralsib.ru/office-atm/office/data/4576","workt":"Пн-Пт 09:00-19:00, без перерыва; Сб 10:00-16:00, перерыв 13:00-13:30","lon":"54.814216","lat":"56.065258","rubric_id":["184105398","184105406"]},{"name":"УРАЛСИБ банк Дополнительный офис Отделение \"Первомайское\"","address":"город Уфа, улица Первомайская, дом 29","country":"Россия","locality":"город Уфа","street":"улица Первомайская","house":"29","phones":[{"number":" +7 (800) 2505757","for_people":"для физ. лиц"},{"number":" +7 (800) 7007716","for_people":"для юр. лиц"}],"info_p":"https://www.uralsib.ru/office-atm/office/data/4577","workt":"Пн-Пт 09:00-19:00, без перерыва; Сб 10:00-16:00, без перерыва","lon":"54.817121","lat":"56.077493","rubric_id":["184105398","184105406"]},{"name":"УРАЛСИБ банк Дополнительный офис \"Инорс\"","address":"город Уфа, улица Ферина, дом 12","country":"Россия","locality":"город Уфа","street":"улица Ферина","house":"12","phones":[{"number":" +7 (800) 2505757","for_people":"для физ. лиц"},{"number":" +7 (800) 7007716","for_people":"для юр. лиц"}],"info_p":"https://www.uralsib.ru/office-atm/office/data/4578","workt":"Пн-Пт 09:00-19:00, без перерыва","lon":"54.783627","lat":"56.130539","rubric_id":["184105398","184105406"]},{"name":"УРАЛСИБ банк Дополнительный офис, поселок Иглино","address":"поселок Иглино, улица Ленина, дом 1","country":"Россия","locality":"поселок Иглино","street":"улица Ленина","house":"1","phones":[{"number":" +7 (800) 2505757","for_people":"для физ. лиц"},{"number":" +7 (800) 7007716","for_people":"для юр. лиц"}],"info_p":"https://www.uralsib.ru/office-atm/office/data/4579","workt":"Пн-Пт 09:00-17:00, перерыв 13:00-14:00","lon":"54.826852","lat":"56.404534","rubric_id":["184105398","184105406"]},{"name":"УРАЛСИБ банк Дополнительный офис Отделение \"Универсальное\"","address":"город Уфа, улица Шафиева, дом 11","country":"Россия","locality":"город Уфа","street":"улица Шафиева","house":"11","phones":[{"number":" +7 (800) 2505757","for_people":"для физ. лиц"},{"number":" +7 (800) 7007716","for_people":"для юр. лиц"}],"info_p":"https://www.uralsib.ru/office-atm/office/data/4580","workt":"Пн-Пт 09:00-20:00, без перерыва; Сб 10:00-16:00, без перерыва","lon":"54.761467","lat":"56.010039","rubric_id":["184105398","184105406"]},{"name":"УРАЛСИБ банк Дополнительный офис Отделение \"Сипайловское\"","address":"город Уфа, улица Жукова, дом 11","country":"Россия","locality":"город Уфа","street":"улица Жукова","house":"11","phones":[{"number":" +7 (800) 2505757","for_people":"для физ. лиц"},{"number":" +7 (800) 7007716","for_people":"для юр. лиц"}],"info_p":"https://www.uralsib.ru/office-atm/office/data/4581","workt":"Пн-Пт 09:00-20:00, без перерыва; Сб 10:00-16:00, перерыв 13:00-13:30","lon":"54.76782","lat":"56.05199","rubric_id":["184105398","184105406"]},{"name":"УРАЛСИБ банк Дополнительный офис \"Отделение \"Дёмское\"","address":"город Уфа, улица Центральная, дом 8","country":"Россия","locality":"город Уфа","street":"улица Центральная","house":"8","phones":[{"number":" +7 (800) 2505757","for_people":"для физ. лиц"},{"number":" +7 (800) 7007716","for_people":"для юр. лиц"}],"info_p":"https://www.uralsib.ru/office-atm/office/data/4582","workt":"Пн-Пт 09:00-19:00, без перерыва; Сб 10:00-16:00, без перерыва","lon":"54.702125","lat":"55.840958","rubric_id":["184105398","184105406"]},{"name":"УРАЛСИБ банк Дополнительный офис, село Архангельское","address":"село Архангельское, улица Советская, дом 39","country":"Россия","locality":"село Архангельское","street":"улица Советская","house":"39","phones":[{"number":" +7 (800) 2505757","for_people":"для физ. лиц"},{"number":" +7 (800) 7007716","for_people":"для юр. лиц"}],"info_p":"https://www.uralsib.ru/office-atm/office/data/4583","workt":"Пн-Пт 09:00-17:00, перерыв 13:00-14:00","lon":"54.409876","lat":"56.787665","rubric_id":["184105398","184105406"]},{"name":"УРАЛСИБ банк Дополнительный офис, поселок Чишмы","address":"поселок Чишмы, улица Шоссейная, дом 1","country":"Россия","locality":"поселок Чишмы","street":"улица Шоссейная","house":"1","phones":[{"number":" +7 (800) 2505757","for_people":"для физ. лиц"},{"number":" +7 (800) 7007716","for_people":"для юр. лиц"}],"info_p":"https://www.uralsib.ru/office-atm/office/data/4584","workt":"Пн-Пт 09:00-18:00","lon":"54.588976","lat":"55.393148","rubric_id":["184105398","184105406"]},{"name":"УРАЛСИБ банк Дополнительный офис, село Языково","address":"село Языково, улица Ленина, дом 83","country":"Россия","locality":"село Языково","street":"улица Ленина","house":"83","phones":[{"number":" +7 (800) 2505757","for_people":"для физ. лиц"},{"number":" +7 (800) 7007716","for_people":"для юр. лиц"}],"info_p":"https://www.uralsib.ru/office-atm/office/data/4585","workt":"Пн-Пт 09:00-17:00, перерыв 13:00-14:00","lon":"54.691168","lat":"55.016637","rubric_id":["184105398","184105406"]},{"name":"УРАЛСИБ банк Дополнительный офис \"Бульвар Славы\"","address":"город Уфа, проспект Октября, дом 119","country":"Россия","locality":"город Уфа","street":"проспект Октября","house":"119","phones":[{"number":" +7 (800) 2505757","for_people":"для физ. лиц"},{"number":" +7 (800) 7007716","for_people":"для юр. лиц"}],"info_p":"https://www.uralsib.ru/office-atm/office/data/4586","workt":"Пн-Пт 09:00-20:00, без перерыва; Сб 10:00-18:00, без перерыва","lon":"54.788216","lat":"56.03441","rubric_id":["184105398","184105406"]},{"name":"УРАЛСИБ банк Дополнительный офис, город Салават","address":"город Салават, улица Ленина, дом 24А","country":"Россия","locality":"город Салават","street":"улица Ленина","house":"24","phones":[{"number":" +7 (800) 2505757","for_people":"для физ. лиц"},{"number":" +7 (800) 7007716","for_people":"для юр. лиц"}],"info_p":"https://www.uralsib.ru/office-atm/office/data/4587","workt":"Пн-Пт 09:00-20:00; Сб 10:00-16:00","lon":"53.354202","lat":"55.925391","rubric_id":["184105398","184105406"]},{"name":"УРАЛСИБ банк Дополнительный офис №12/04","address":"город Салават, улица Салавата Юлаева, дом 51","country":"Россия","locality":"город Салават","street":"улица Салавата Юлаева","house":"51","phones":[{"number":" +7 (800) 2505757","for_people":"для физ. лиц"},{"number":" +7 (800) 7007716","for_people":"для юр. лиц"}],"info_p":"https://www.uralsib.ru/office-atm/office/data/4588","workt":"Пн-Пт 09:00-19:00, без перерыва; Сб 10:00-16:00, без перерыва","lon":"53.361651","lat":"55.924672","rubric_id":["184105398","184105406"]},{"name":"УРАЛСИБ банк Дополнительный офис, город Нефтекамск","address":"город Нефтекамск, улица Ленина, дом 21","country":"Россия","locality":"город Нефтекамск","street":"улица Ленина","house":"21","phones":[{"number":" +7 (800) 2505757","for_people":"для физ. лиц"},{"number":" +7 (800) 7007716","for_people":"для юр. лиц"}],"info_p":"https://www.uralsib.ru/office-atm/office/data/4589","workt":"Пн-Пт 09:00-20:00, без перерыва; Сб 10:00-16:00, без перерыва","lon":"56.092586","lat":"54.236477","rubric_id":["184105398","184105406"]},{"name":"УРАЛСИБ банк Дополнительный офис, город Агидель","address":"город Агидель, улица Курчатова, дом 15","country":"Россия","locality":"город Агидель","street":"улица Курчатова","house":"15","phones":[{"number":" +7 (800) 2505757","for_people":"для физ. лиц"},{"number":" +7 (800) 7007716","for_people":"для юр. лиц"}],"info_p":"https://www.uralsib.ru/office-atm/office/data/4590","workt":"Пн-Пт 09:00-17:00, перерыв 13:00-14:00","lon":"55.90037","lat":"53.927933","rubric_id":["184105398","184105406"]},{"name":"УРАЛСИБ банк Дополнительный офис, село Калтасы","address":"село Калтасы, улица Карла Маркса, дом 58","country":"Россия","locality":"село Калтасы","street":"улица Карла Маркса","house":"58","phones":[{"number":" +7 (800) 2505757","for_people":"для физ. лиц"},{"number":" +7 (800) 7007716","for_people":"для юр. лиц"}],"info_p":"https://www.uralsib.ru/office-atm/office/data/4591","workt":"Пн-Пт 09:00-17:00, перерыв 13:00-14:00","lon":"55.969799","lat":"54.806745","rubric_id":["184105398","184105406"]},{"name":"УРАЛСИБ банк Дополнительный офис, поселок Николо-Березовка","address":"поселок Николо-Березовка, улица Дорожная, дом 21","country":"Россия","locality":"поселок Николо-Березовка","street":"улица Дорожная","house":"21","phones":[{"number":" +7 (800) 2505757","for_people":"для физ. лиц"}],"info_p":"https://www.uralsib.ru/office-atm/office/data/375","workt":"Пн-Пт 09:00-17:00, перерыв 13:00-14:00","lon":"","lat":"","rubric_id":["184105398","184105406"]},{"name":"УРАЛСИБ банк Дополнительный офис \"Отделение №03/07\"","address":"поселок Куяново, улица Цветочная, дом 3","country":"Россия","locality":"поселок Куяново","street":"улица Цветочная","house":"3","phones":[{"number":" +7 (800) 2505757","for_people":"для физ. лиц"},{"number":" +7 (800) 7007716","for_people":"для юр. лиц"}],"info_p":"https://www.uralsib.ru/office-atm/office/data/4592","workt":"Пн-Пт 09:00-17:00, перерыв 13:00-14:00","lon":"55.809429","lat":"54.534906","rubric_id":["184105398","184105406"]},{"name":"УРАЛСИБ банк Дополнительный офис \"Отделение №65/01\"","address":"поселок городского типа Краснохолмский, улица Фрунзе, дом 28","country":"Россия","locality":"поселок городского типа Краснохолмский","street":"улица Фрунзе","house":"28","phones":[{"number":" +7 (800) 2505757","for_people":"для физ. лиц"},{"number":" +7 (800) 7007716","for_people":"для юр. лиц"}],"info_p":"https://www.uralsib.ru/office-atm/office/data/4593","workt":"Пн-Пт 09:00-17:00, перерыв 13:00-14:00","lon":"55.983333","lat":"55.048707","rubric_id":["184105398","184105406"]},{"name":"УРАЛСИБ банк Дополнительный офис, город Октябрьский","address":"город Октябрьский, проспект Ленина, дом 1","country":"Россия","locality":"город Октябрьский","street":"проспект Ленина","house":"1","phones":[{"number":" +7 (800) 2505757","for_people":"для физ. лиц"},{"number":" +7 (800) 7007716","for_people":"для юр. лиц"}],"info_p":"https://www.uralsib.ru/office-atm/office/data/4594","workt":"Пн-Пт 09:00-19:00, без перерыва; Сб 10:00-16:00, без перерыва","lon":"54.482191","lat":"53.465812","rubric_id":["184105398","184105406"]},{"name":"УРАЛСИБ банк Дополнительный офис \"Отделение №06/04\"","address":"город Октябрьский, проспект Ленина, дом 37А","country":"Россия","locality":"город Октябрьский","street":"проспект Ленина","house":"37","phones":[{"number":" +7 (800) 2505757","for_people":"для физ. лиц"},{"number":" +7 (800) 7007716","for_people":"для юр. лиц"}],"info_p":"https://www.uralsib.ru/office-atm/office/data/4595","workt":"Пн-Пт 09:00-18:00, перерыв 13:00-14:00","lon":"54.484587","lat":"53.48129","rubric_id":["184105398","184105406"]},{"name":"УРАЛСИБ банк Дополнительный офис, город Дюртюли","address":"город Дюртюли, улица Чеверева, дом 18","country":"Россия","locality":"город Дюртюли","street":"улица Чеверева","house":"18","phones":[{"number":" +7 (800) 2505757","for_people":"для физ. лиц"},{"number":" +7 (800) 7007716","for_people":"для юр. лиц"}],"info_p":"https://www.uralsib.ru/office-atm/office/data/4596","workt":"Пн-Пт 09:00-18:00, без перерыва; Сб 10:00-16:00, перерыв 13:00-13:30","lon":"55.484852","lat":"54.873203","rubric_id":["184105398","184105406"]},{"name":"УРАЛСИБ банк Дополнительный офис, город Янаул","address":"город Янаул, улица Ломоносова, дом 16","country":"Россия","locality":"город Янаул","street":"улица Ломоносова","house":"16","phones":[{"number":" +7 (800) 2505757","for_people":"для физ. лиц"},{"number":" +7 (800) 7007716","for_people":"для юр. лиц"}],"info_p":"https://www.uralsib.ru/office-atm/office/data/4597","workt":"Пн-Пт 09:00-18:00, без перерыва; Сб 10:00-16:00, перерыв 13:00-13:30","lon":"56.264202","lat":"54.928485","rubric_id":["184105398","184105406"]},{"name":"УРАЛСИБ банк Дополнительный офис, город Бирск","address":"город Бирск, улица Мичурина, дом 59","country":"Россия","locality":"город Бирск","street":"улица Мичурина","house":"59","phones":[{"number":" +7 (800) 2505757","for_people":"для физ. лиц"},{"number":" +7 (800) 7007716","for_people":"для юр. лиц"}],"info_p":"https://www.uralsib.ru/office-atm/office/data/4598","workt":"Пн-Пт 09:00-18:00, без перерыва; Сб 10:00-16:00, перерыв 13:00-13:30","lon":"55.423146","lat":"55.537777","rubric_id":["184105398","184105406"]},{"name":"УРАЛСИБ банк Дополнительный офис, село Аскино","address":"село Аскино, улица Советская, дом 10/1","country":"Россия","locality":"село Аскино","street":"улица Советская","house":"10","phones":[{"number":" +7 (800) 2505757","for_people":"для физ. лиц"},{"number":" +7 (800) 7007716","for_people":"для юр. лиц"}],"info_p":"https://www.uralsib.ru/office-atm/office/data/4599","workt":"Пн-Пт 09:00-17:00, перерыв 13:00-14:00","lon":"56.086017","lat":"56.579499","rubric_id":["184105398","184105406"]},{"name":"УРАЛСИБ банк Дополнительный офис, село Караидель","address":"село Караидель, улица Ленина, дом 15","country":"Россия","locality":"село Караидель","street":"улица Ленина","house":"15","phones":[{"number":" +7 (800) 2505757","for_people":"для физ. лиц"},{"number":" +7 (800) 7007716","for_people":"для юр. лиц"}],"info_p":"https://www.uralsib.ru/office-atm/office/data/4600","workt":"Пн-Пт 09:00-17:00, перерыв 13:00-14:00","lon":"55.828905","lat":"56.916457","rubric_id":["184105398","184105406"]},{"name":"УРАЛСИБ банк Дополнительный офис, город Белебей","address":"город Белебей, улица Горохова, дом 13","country":"Россия","locality":"город Белебей","street":"улица Горохова","house":"13","phones":[{"number":" +7 (800) 2505757","for_people":"для физ. лиц"},{"number":" +7 (800) 7007716","for_people":"для юр. лиц"}],"info_p":"https://www.uralsib.ru/office-atm/office/data/4601","workt":"Пн-Пт 09:00-19:00, без перерыва; Сб 10:00-16:00, без перерыва","lon":"54.110995","lat":"54.105521","rubric_id":["184105398","184105406"]},{"name":"УРАЛСИБ банк Дополнительный офис, поселок городского типа Приютово","address":"поселок городского типа Приютово, улица Магистральная, дом 5","country":"Россия","locality":"поселок городского типа Приютово","street":"улица Магистральная","house":"5","phones":[{"number":" +7 (800) 2505757","for_people":"для физ. лиц"},{"number":" +7 (800) 7007716","for_people":"для юр. лиц"}],"info_p":"https://www.uralsib.ru/office-atm/office/data/4602","workt":"Пн-Пт 09:00-18:00, без перерыва","lon":"53.900082","lat":"53.934086","rubric_id":["184105398","184105406"]},{"name":"УРАЛСИБ банк Дополнительный офис, село Киргиз-Мияки","address":"село Киргиз-Мияки, улица Губайдуллина, дом 101в","country":"Россия","locality":"село Киргиз-Мияки","street":"улица Губайдуллина","house":"101","phones":[{"number":" +7 (800) 2505757","for_people":"для физ. лиц"},{"number":" +7 (800) 7007716","for_people":"для юр. лиц"}],"info_p":"https://www.uralsib.ru/office-atm/office/data/4603","workt":"Пн-Пт 09:00-17:00, перерыв 13:00-14:00","lon":"53.634589","lat":"54.797223","rubric_id":["184105398","184105406"]},{"name":"УРАЛСИБ банк Дополнительный офис, город Белорецк","address":"город Белорецк, улица Кирова, дом 48","country":"Россия","locality":"город Белорецк","street":"улица Кирова","house":"48","phones":[{"number":" +7 (800) 2505757","for_people":"для физ. лиц"},{"number":" +7 (800) 7007716","for_people":"для юр. лиц"}],"info_p":"https://www.uralsib.ru/office-atm/office/data/4604","workt":"Пн-Пт 09:00-19:00, без перерыва; Сб 10:00-16:00, без перерыва","lon":"53.962207","lat":"58.401435","rubric_id":["184105398","184105406"]},{"name":"УРАЛСИБ банк Дополнительный офис, село Старосубхангулово","address":"село Старосубхангулово, улица Комсомольская, дом 8/2","country":"Россия","locality":"село Старосубхангулово","street":"улица Комсомольская","house":"8","phones":[{"number":" +7 (800) 2505757","for_people":"для физ. лиц"},{"number":" +7 (800) 7007716","for_people":"для юр. лиц"}],"info_p":"https://www.uralsib.ru/office-atm/office/data/4605","workt":"Пн-Пт 09:00-17:00, перерыв 13:00-14:00","lon":"53.101097","lat":"57.444316","rubric_id":["184105398","184105406"]},{"name":"УРАЛСИБ банк Дополнительный офис, город Сибай","address":"город Сибай, улица Кирова, дом 28","country":"Россия","locality":"город Сибай","street":"улица Кирова","house":"28","phones":[{"number":" +7 (800) 2505757","for_people":"для физ. лиц"},{"number":" +7 (800) 7007716","for_people":"для юр. лиц"}],"info_p":"https://www.uralsib.ru/office-atm/office/data/4606","workt":"Пн-Пт 09:00-19:00, без перерыва; Сб 10:00-16:00, без перерыва","lon":"52.716435","lat":"58.670615","rubric_id":["184105398","184105406"]},{"name":"УРАЛСИБ банк Дополнительный офис, город Баймак","address":"город Баймак, проспект Салавата Юлаева, дом 36А","country":"Россия","locality":"город Баймак","street":"проспект Салавата Юлаева","house":"36","phones":[{"number":" +7 (800) 2505757","for_people":"для физ. лиц"},{"number":" +7 (800) 7007716","for_people":"для юр. лиц"}],"info_p":"https://www.uralsib.ru/office-atm/office/data/4607","workt":"Пн-Пт 09:00-18:00, перерыв 13:00-14:00","lon":"52.59757","lat":"58.308765","rubric_id":["184105398","184105406"]},{"name":"УРАЛСИБ банк Дополнительный офис, село Аскарово","address":"село Аскарово, улица Шаймуратова, дом 55","country":"Россия","locality":"село Аскарово","street":"улица Шаймуратова","house":"55","phones":[{"number":" +7 (800) 2505757","for_people":"для физ. лиц"},{"number":" +7 (800) 7007716","for_people":"для юр. лиц"}],"info_p":"https://www.uralsib.ru/office-atm/office/data/4608","workt":"Пн-Пт 09:00-17:00, перерыв 13:00-14:00","lon":"53.334747","lat":"58.51968","rubric_id":["184105398","184105406"]},{"name":"УРАЛСИБ банк Дополнительный офис, село Зилаир","address":"село Зилаир, улица Ленина, дом 74","country":"Россия","locality":"село Зилаир","street":"улица Ленина","house":"74","phones":[{"number":" +7 (800) 2505757","for_people":"для физ. лиц"},{"number":" +7 (800) 7007716","for_people":"для юр. лиц"}],"info_p":"https://www.uralsib.ru/office-atm/office/data/4609","workt":"Пн-Пт 09:00-17:00, перерыв 13:00-14:00","lon":"52.2353","lat":"57.439609","rubric_id":["184105398","184105406"]},{"name":"УРАЛСИБ банк Дополнительный офис, город Кумертау","address":"город Кумертау, улица Пушкина, дом 23","country":"Россия","locality":"город Кумертау","street":"улица Пушкина","house":"23","phones":[{"number":" +7 (800) 2505757","for_people":"для физ. лиц"},{"number":" +7 (800) 7007716","for_people":"для юр. лиц"}],"info_p":"https://www.uralsib.ru/office-atm/office/data/4610","workt":"Пн-Пт 09:00-19:00, без перерыва; Сб 10:00-16:00, перерыв 13:00-13:30","lon":"52.760566","lat":"55.793707","rubric_id":["184105398","184105406"]},{"name":"УРАЛСИБ банк Дополнительный офис, поселок городского типа Ермолаево","address":"поселок городского типа Ермолаево, улица Калинина, дом 2","country":"Россия","locality":"поселок городского типа Ермолаево","street":"улица Калинина","house":"2","phones":[{"number":" +7 (800) 2505757","for_people":"для физ. лиц"},{"number":" +7 (800) 7007716","for_people":"для юр. лиц"}],"info_p":"https://www.uralsib.ru/office-atm/office/data/4611","workt":"Пн-Пт 09:00-18:00, перерыв 13:00-14:00","lon":"52.715235","lat":"55.8215","rubric_id":["184105398","184105406"]},{"name":"УРАЛСИБ банк Дополнительный офис, село Исянгулово","address":"село Исянгулово, улица Советская, дом 11","country":"Россия","locality":"село Исянгулово","street":"улица Советская","house":"11","phones":[{"number":" +7 (800) 2505757","for_people":"для физ. лиц"},{"number":" +7 (800) 7007716","for_people":"для юр. лиц"}],"info_p":"https://www.uralsib.ru/office-atm/office/data/4612","workt":"Пн-Пт 09:00-18:00, перерыв 13:00-14:00","lon":"52.191972","lat":"56.573121","rubric_id":["184105398","184105406"]},{"name":"УРАЛСИБ банк Дополнительный офис, село Мраково","address":"село Мраково, улица Биишевой, дом 84","country":"Россия","locality":"село Мраково","street":"улица Биишевой","house":"84","phones":[{"number":" +7 (800) 2505757","for_people":"для физ. лиц"},{"number":" +7 (800) 7007716","for_people":"для юр. лиц"}],"info_p":"https://www.uralsib.ru/office-atm/office/data/4613","workt":"Пн-Пт 09:00-18:00, перерыв 13:00-14:00","lon":"52.714935","lat":"56.620705","rubric_id":["184105398","184105406"]},{"name":"УРАЛСИБ банк Дополнительный офис, город Туймазы","address":"город Туймазы, улица Комарова, дом 8А","country":"Россия","locality":"город Туймазы","street":"улица Комарова","house":"8","phones":[{"number":" +7 (800) 2505757","for_people":"для физ. лиц"},{"number":" +7 (800) 7007716","for_people":"для юр. лиц"}],"info_p":"https://www.uralsib.ru/office-atm/office/data/4614","workt":"Пн-Пт 09:00-19:00, без перерыва; Сб 10:00-16:00, без перерыва","lon":"54.605339","lat":"53.699186","rubric_id":["184105398","184105406"]},{"name":"УРАЛСИБ банк Дополнительный офис, село Кандры","address":"село Кандры, улица Нефтяников, дом 12","country":"Россия","locality":"село Кандры","street":"улица Нефтяников","house":"12","phones":[{"number":" +7 (800) 2505757","for_people":"для физ. лиц"},{"number":" +7 (800) 7007716","for_people":"для юр. лиц"}],"info_p":"https://www.uralsib.ru/office-atm/office/data/4615","workt":"Пн-Пт 09:00-17:00, перерыв 13:00-14:00","lon":"54.547287","lat":"54.111198","rubric_id":["184105398","184105406"]},{"name":"УРАЛСИБ банк Дополнительный офис, село Серафимовский","address":"село Серафимовский, улица Ленина, дом 12","country":"Россия","locality":"село Серафимовский","street":"улица Ленина","house":"12","phones":[{"number":" +7 (800) 2505757","for_people":"для физ. лиц"},{"number":" +7 (800) 7007716","for_people":"для юр. лиц"}],"info_p":"https://www.uralsib.ru/office-atm/office/data/4616","workt":"Пн-Пт 09:00-17:00, перерыв 13:00-14:00","lon":"54.422041","lat":"53.796734","rubric_id":["184105398","184105406"]},{"name":"УРАЛСИБ банк Дополнительный офис, город Ишимбай","address":"город Ишимбай, улица Промысловая, дом 3","country":"Россия","locality":"город Ишимбай","street":"улица Промысловая","house":"3","phones":[{"number":" +7 (800) 2505757","for_people":"для физ. лиц"},{"number":" +7 (800) 7007716","for_people":"для юр. лиц"}],"info_p":"https://www.uralsib.ru/office-atm/office/data/4617","workt":"Пн-Пт 09:00-18:00; Сб 10:00-16:00","lon":"53.449221","lat":"56.026658","rubric_id":["184105398","184105406"]},{"name":"УРАЛСИБ банк Дополнительный офис, город Учалы","address":"город Учалы, улица Башкортостана, дом 9","country":"Россия","locality":"город Учалы","street":"улица Башкортостана","house":"9","phones":[{"number":" +7 (800) 2505757","for_people":"для физ. лиц"},{"number":" +7 (800) 7007716","for_people":"для юр. лиц"}],"info_p":"https://www.uralsib.ru/office-atm/office/data/4618","workt":"Пн-Пт 09:00-19:00, без перерыва; Сб 10:00-16:00, перерыв 13:00-13:30","lon":"54.319176","lat":"59.378631","rubric_id":["184105398","184105406"]},{"name":"УРАЛСИБ банк Дополнительный офис, город Мелеуз","address":"город Мелеуз, улица Ленина, дом 150","country":"Россия","locality":"город Мелеуз","street":"улица Ленина","house":"150","phones":[{"number":" +7 (800) 2505757","for_people":"для физ. лиц"},{"number":" +7 (800) 7007716","for_people":"для юр. лиц"}],"info_p":"https://www.uralsib.ru/office-atm/office/data/4619","workt":"Пн-Пт 09:00-19:00, без перерыва; Сб 10:00-16:00, без перерыва","lon":"52.963548","lat":"55.92778","rubric_id":["184105398","184105406"]},{"name":"УРАЛСИБ банк Дополнительный офис, село Федоровка","address":"село Федоровка, улица Ленина, дом 52","country":"Россия","locality":"село Федоровка","street":"улица Ленина","house":"52","phones":[{"number":" +7 (800) 2505757","for_people":"для физ. лиц"},{"number":" +7 (800) 7007716","for_people":"для юр. лиц"}],"info_p":"https://www.uralsib.ru/office-atm/office/data/4620","workt":"Пн-Пт 09:00-17:00, перерыв 13:00-14:00","lon":"","lat":"","rubric_id":["184105398","184105406"]},{"name":"УРАЛСИБ банк Дополнительный офис, город Благовещенск","address":"город Благовещенск, улица Демьяна Бедного, дом 77/2","country":"Россия","locality":"город Благовещенск","street":"улица Демьяна Бедного","house":"77","phones":[{"number":" +7 (800) 2505757","for_people":"для физ. лиц"},{"number":" +7 (800) 7007716","for_people":"для юр. лиц"}],"info_p":"https://www.uralsib.ru/office-atm/office/data/4621","workt":"Пн-Пт 09:00-19:00, без перерыва; Сб 10:00-16:00, без перерыва","lon":"55.047853","lat":"55.96038","rubric_id":["184105398","184105406"]},{"name":"УРАЛСИБ банк Дополнительный офис, город Давлеканово","address":"город Давлеканово, улица 50 лет Башкирии, дом 2","country":"Россия","locality":"город Давлеканово","street":"улица 50 лет Башкирии","house":"2","phones":[{"number":" +7 (800) 2505757","for_people":"для физ. лиц"},{"number":" +7 (800) 7007716","for_people":"для юр. лиц"}],"info_p":"https://www.uralsib.ru/office-atm/office/data/4622","workt":"Пн-Пт 09:00-18:00, перерыв 13:00-14:00; Сб 10:00-16:00, без перерыва","lon":"54.221211","lat":"55.034361","rubric_id":["184105398","184105406"]},{"name":"УРАЛСИБ банк Дополнительный офис, село Раевский","address":"село Раевский, улица Ленина, дом 114/1","country":"Россия","locality":"село Раевский","street":"улица Ленина","house":"114","phones":[{"number":" +7 (800) 2505757","for_people":"для физ. лиц"},{"number":" +7 (800) 7007716","for_people":"для юр. лиц"}],"info_p":"https://www.uralsib.ru/office-atm/office/data/4623","workt":"Пн-Пт 09:00-18:00, без перерыва","lon":"54.06963","lat":"54.941259","rubric_id":["184105398","184105406"]},{"name":"УРАЛСИБ банк Дополнительный офис, село Месягутово","address":"село Месягутово, улица Крупской, дом 2/1","country":"Россия","locality":"село Месягутово","street":"улица Крупской","house":"2","phones":[{"number":" +7 (800) 2505757","for_people":"для физ. лиц"},{"number":" +7 (800) 7007716","for_people":"для юр. лиц"}],"info_p":"https://www.uralsib.ru/office-atm/office/data/4624","workt":"Пн-Пт 09:00-17:00, перерыв 13:00-14:00","lon":"55.533094","lat":"58.24414","rubric_id":["184105398","184105406"]},{"name":"УРАЛСИБ банк Дополнительный офис, село Верхнеяркеево","address":"село Верхнеяркеево, улица Советская, дом 22","country":"Россия","locality":"село Верхнеяркеево","street":"улица Советская","house":"22","phones":[{"number":" +7 (800) 2505757","for_people":"для физ. лиц"},{"number":" +7 (800) 7007716","for_people":"для юр. лиц"}],"info_p":"https://www.uralsib.ru/office-atm/office/data/4625","workt":"Пн-Пт 09:00-17:00, перерыв 13:00-14:00","lon":"55.444808","lat":"54.312214","rubric_id":["184105398","184105406"]},{"name":"УРАЛСИБ банк Дополнительный офис \"Солнечный\"","address":"город Стерлитамак, улица Коммунистическая, дом 84","country":"Россия","locality":"город Стерлитамак","street":"улица Коммунистическая","house":"84","phones":[{"number":" +7 (800) 2505757","for_people":"для физ. лиц"},{"number":" +7 (800) 7007716","for_people":"для юр. лиц"}],"info_p":"https://www.uralsib.ru/office-atm/office/data/4626","workt":"Пн-Пт 09:00-20:00; Сб 10:00-16:00","lon":"53.619332","lat":"55.907182","rubric_id":["184105398","184105406"]},{"name":"УРАЛСИБ банк Дополнительный офис \"Толбазинский\"","address":"село Толбазы, улица Ленина, дом 72б","country":"Россия","locality":"село Толбазы","street":"улица Ленина","house":"72","phones":[{"number":" +7 (800) 2505757","for_people":"для физ. лиц"},{"number":" +7 (800) 7007716","for_people":"для юр. лиц"}],"info_p":"https://www.uralsib.ru/office-atm/office/data/4627","workt":"Пн-Пт 09:00-17:00, перерыв 13:00-14:00","lon":"54.01941","lat":"55.885523","rubric_id":["184105398","184105406"]},{"name":"УРАЛСИБ банк Дополнительный офис \"Красноусольский\"","address":"село Красноусольский, улица Ленина, дом 12","country":"Россия","locality":"село Красноусольский","street":"улица Ленина","house":"12","phones":[{"number":" +7 (800) 2505757","for_people":"для физ. лиц"},{"number":" +7 (800) 7007716","for_people":"для юр. лиц"}],"info_p":"https://www.uralsib.ru/office-atm/office/data/4628","workt":"Пн-Пт 09:00-17:00, перерыв 13:00-14:00","lon":"53.892951","lat":"56.466617","rubric_id":["184105398","184105406"]},{"name":"УРАЛСИБ банк Дополнительный офис \"Стерлибашевский\"","address":"село Стерлибашево, улица Карла Маркса, дом 95","country":"Россия","locality":"село Стерлибашево","street":"улица Карла Маркса","house":"95","phones":[{"number":" +7 (800) 2505757","for_people":"для физ. лиц"},{"number":" +7 (800) 7007716","for_people":"для юр. лиц"}],"info_p":"https://www.uralsib.ru/office-atm/office/data/4629","workt":"Пн-Пт 09:00-17:00, перерыв 13:00-14:00","lon":"53.440967","lat":"55.260556","rubric_id":["184105398","184105406"]},{"name":"УРАЛСИБ банк Дополнительный офис \"Юбилейный\"","address":"город Стерлитамак, Пр. Октября, дом 39","country":"Россия","locality":"город Стерлитамак","street":"Пр. Октября","house":"39","phones":[{"number":" +7 (800) 2505757","for_people":"для физ. лиц"},{"number":" +7 (800) 7007716","for_people":"для юр. лиц"}],"info_p":"https://www.uralsib.ru/office-atm/office/data/4630","workt":"Пн-Пт 09:00-20:00; Сб 10:00-16:00","lon":"53.629158","lat":"55.91983","rubric_id":["184105398","184105406"]},{"name":"УРАЛСИБ банк Дополнительный офис №42/07","address":"город Стерлитамак, проспект Ленина, дом 30","country":"Россия","locality":"город Стерлитамак","street":"проспект Ленина","house":"30","phones":[{"number":" +7 (800) 2505757","for_people":"для физ. лиц"},{"number":" +7 (800) 7007716","for_people":"для юр. лиц"}],"info_p":"https://www.uralsib.ru/office-atm/office/data/4631","workt":"Пн-Пт 09:00-20:00; Сб 10:00-16:00","lon":"53.639404","lat":"55.937967","rubric_id":["184105398","184105406"]},{"name":"УРАЛСИБ банк Дополнительный офис №42/10","address":"город Стерлитамак, улица Гоголя, дом 94","country":"Россия","locality":"город Стерлитамак","street":"улица Гоголя","house":"94","phones":[{"number":" +7 (800) 2505757","for_people":"для физ. лиц"},{"number":" +7 (800) 7007716","for_people":"для юр. лиц"}],"info_p":"https://www.uralsib.ru/office-atm/office/data/4632","workt":"Пн-Пт 09:00-20:00, без перерыва; Сб 10:00-16:00, без перерыва","lon":"53.602873","lat":"55.943348","rubric_id":["184105398","184105406"]},{"name":"УРАЛСИБ банк Дополнительный офис \"Стерлитамакский\"","address":"город Стерлитамак, улица Советская, дом 96А","country":"Россия","locality":"город Стерлитамак","street":"улица Советская","house":"96","phones":[{"number":" +7 (800) 2505757","for_people":"для физ. лиц"},{"number":" +7 (800) 7007716","for_people":"для юр. лиц"}],"info_p":"https://www.uralsib.ru/office-atm/office/data/4633","workt":"Пн-Пт 09:00-20:00; Сб 10:00-16:00","lon":"53.619439","lat":"55.956185","rubric_id":["184105398","184105406"]},{"name":"УРАЛСИБ банк Дополнительный офис, село Бураево","address":"село Бураево, улица Ленина, дом 108/1","country":"Россия","locality":"село Бураево","street":"улица Ленина","house":"108","phones":[{"number":" +7 (800) 2505757","for_people":"для физ. лиц"},{"number":" +7 (800) 7007716","for_people":"для юр. лиц"}],"info_p":"https://www.uralsib.ru/office-atm/office/data/4634","workt":"Пн-Пт 09:00-17:00, перерыв 13:00-14:00","lon":"55.842317","lat":"55.403577","rubric_id":["184105398","184105406"]},{"name":"УРАЛСИБ банк Дополнительный офис, село Старобалтачево","address":"село Старобалтачево, улица Советская, дом 25","country":"Россия","locality":"село Старобалтачево","street":"улица Советская","house":"25","phones":[{"number":" +7 (800) 2505757","for_people":"для физ. лиц"},{"number":" +7 (800) 7007716","for_people":"для юр. лиц"}],"info_p":"https://www.uralsib.ru/office-atm/office/data/4635","workt":"Пн-Пт 09:00-17:00, перерыв 13:00-14:00","lon":"56.002511","lat":"55.924295","rubric_id":["184105398","184105406"]},{"name":"УРАЛСИБ банк Операционный офис \"Петрозаводский\"","address":"город Петрозаводск, улица Титова, дом 11","country":"Россия","locality":"город Петрозаводск","street":"улица Титова","house":"11","phones":[{"number":" +7 (800) 2505757","for_people":"для физ. лиц"},{"number":" +7 (800) 7007716","for_people":"для юр. лиц"}],"info_p":"https://www.uralsib.ru/office-atm/office/data/4636","workt":"Пн-Пт 09:00-19:00, без перерыва; Сб 10:00-16:00, без перерыва","lon":"61.788951","lat":"34.375391","rubric_id":["184105398","184105406"]},{"name":"УРАЛСИБ банк Операционный офис, город Набережные Челны","address":"город Набережные Челны, проспект Хасана Туфана, дом 29Г","country":"Россия","locality":"город Набережные Челны","street":"проспект Хасана Туфана","house":"29","phones":[{"number":" +7 (800) 2505757","for_people":"для физ. лиц"},{"number":" +7 (800) 7007716","for_people":"для юр. лиц"}],"info_p":"https://www.uralsib.ru/office-atm/office/data/4637","workt":"Пн-Пт 09:00-18:00, без перерыва; Сб 10:00-16:00, перерыв 13:00-13:30","lon":"55.742945","lat":"52.394077","rubric_id":["184105398","184105406"]},{"name":"УРАЛСИБ банк Операционный офис \"Казанский\"","address":"город Казань, улица Петербургская, дом 88","country":"Россия","locality":"город Казань","street":"улица Петербургская","house":"88","phones":[{"number":" +7 (800) 2505757","for_people":"для физ. лиц"},{"number":" +7 (800) 7007716","for_people":"для юр. лиц"}],"info_p":"https://www.uralsib.ru/office-atm/office/data/4638","workt":"Пн-Пт 09:00-18:00, без перерыва; Сб 10:00-16:00, перерыв 13:00-13:30","lon":"55.776862","lat":"49.141862","rubric_id":["184105398","184105406"]},{"name":"УРАЛСИБ банк Операционный офис \"Магистральный\"","address":"город Ижевск, улица Холмогорова, дом 17","country":"Россия","locality":"город Ижевск","street":"улица Холмогорова","house":"17","phones":[{"number":" +7 (800) 2505757","for_people":"для физ. лиц"},{"number":" +7 (800) 7007716","for_people":"для юр. лиц"}],"info_p":"https://www.uralsib.ru/office-atm/office/data/4639","workt":"Пн-Пт 09:00-18:00, без перерыва","lon":"56.876166","lat":"53.212155","rubric_id":["184105398","184105406"]},{"name":"УРАЛСИБ банк Операционный офис \"Набережный\"","address":"город Ижевск, улица Максима Горького, дом 156","country":"Россия","locality":"город Ижевск","street":"улица Максима Горького","house":"156","phones":[{"number":" +7 (800) 2505757","for_people":"для физ. лиц"},{"number":" +7 (800) 7007716","for_people":"для юр. лиц"}],"info_p":"https://www.uralsib.ru/office-atm/office/data/4640","workt":"Пн-Пт 09:00-18:00, перерыв 13:00-14:00","lon":"56.855802","lat":"53.198546","rubric_id":["184105398","184105406"]},{"name":"УРАЛСИБ банк Операционный офис \"Заводской\"","address":"город Ижевск, улица Заводская, дом 4","country":"Россия","locality":"город Ижевск","street":"улица Заводская","house":"4","phones":[{"number":" +7 (800) 2505757","for_people":"для физ. лиц"},{"number":" +7 (800) 7007716","for_people":"для юр. лиц"}],"info_p":"https://www.uralsib.ru/office-atm/office/data/4641","workt":"Пн-Пт 09:00-18:00, перерыв 13:00-14:00","lon":"56.819356","lat":"53.172458","rubric_id":["184105398","184105406"]},{"name":"УРАЛСИБ банк Операционный офис \"Сарапульский\"","address":"город Сарапул, улица Красноармейская, дом 76","country":"Россия","locality":"город Сарапул","street":"улица Красноармейская","house":"76","phones":[{"number":" +7 (800) 2505757","for_people":"для физ. лиц"},{"number":" +7 (800) 7007716","for_people":"для юр. лиц"}],"info_p":"https://www.uralsib.ru/office-atm/office/data/4642","workt":"Пн-Пт 09:00-18:00","lon":"56.473784","lat":"53.813029","rubric_id":["184105398","184105406"]},{"name":"УРАЛСИБ банк Операционный офис \"Воткинский\"","address":"город Воткинск, улица Дзержинского, дом 9","country":"Россия","locality":"город Воткинск","street":"улица Дзержинского","house":"9","phones":[{"number":" +7 (800) 2505757","for_people":"для физ. лиц"},{"number":" +7 (800) 7007716","for_people":"для юр. лиц"}],"info_p":"https://www.uralsib.ru/office-atm/office/data/4643","workt":"Пн-Пт 09:00-18:00, перерыв 13:00-14:00","lon":"57.065628","lat":"53.990428","rubric_id":["184105398","184105406"]},{"name":"УРАЛСИБ банк Операционный офис \"Удмуртский\"","address":"город Ижевск, улица Удмуртская, дом 196","country":"Россия","locality":"город Ижевск","street":"улица Удмуртская","house":"196","phones":[{"number":" +7 (800) 2505757","for_people":"для физ. лиц"},{"number":" +7 (800) 7007716","for_people":"для юр. лиц"}],"info_p":"https://www.uralsib.ru/office-atm/office/data/4644","workt":"Пн-Пт 09:00-18:00, перерыв 13:00-14:00","lon":"56.834698","lat":"53.231253","rubric_id":["184105398","184105406"]},{"name":"УРАЛСИБ банк Операционный офис \"Глазовский\"","address":"город Глазов, улица Динамо, дом 5","country":"Россия","locality":"город Глазов","street":"улица Динамо","house":"5","phones":[{"number":" +7 (800) 2505757","for_people":"для физ. лиц"},{"number":" +7 (800) 7007716","for_people":"для юр. лиц"}],"info_p":"https://www.uralsib.ru/office-atm/office/data/4645","workt":"Пн-Пт 09:00-18:00, без перерыва","lon":"58.136801","lat":"52.659691","rubric_id":["184105398","184105406"]},{"name":"УРАЛСИБ банк Операционный офис \"Ижевский\"","address":"город Ижевск, улица Пушкинская, дом 291А","country":"Россия","locality":"город Ижевск","street":"улица Пушкинская","house":"291","phones":[{"number":" +7 (800) 2505757","for_people":"для физ. лиц"},{"number":" +7 (800) 7007716","for_people":"для юр. лиц"}],"info_p":"https://www.uralsib.ru/office-atm/office/data/4646","workt":"Пн-Пт 09:00-19:00, без перерыва; Сб 10:00-16:00, перерыв 13:00-13:30","lon":"56.871094","lat":"53.206532","rubric_id":["184105398","184105406"]},{"name":"УРАЛСИБ банк Операционный офис \"Бийский\"","address":"город Бийск, улица Л. Толстого, дом 141","country":"Россия","locality":"город Бийск","street":"улица Л. Толстого","house":"141","phones":[{"number":" +7 (800) 2505757","for_people":"для физ. лиц"},{"number":" +7 (800) 7007716","for_people":"для юр. лиц"}],"info_p":"https://www.uralsib.ru/office-atm/office/data/4475","workt":"Пн-Пт 09:00-18:00","lon":"52.542523","lat":"85.22557","rubric_id":["184105398","184105406"]},{"name":"УРАЛСИБ банк Операционный офис \"Алтайский\"","address":"город Барнаул, проспект Ленина, дом 147в","country":"Россия","locality":"город Барнаул","street":"проспект Ленина","house":"147","phones":[{"number":" +7 (800) 2505757","for_people":"для физ. лиц"},{"number":" +7 (800) 7007716","for_people":"для юр. лиц"}],"info_p":"https://www.uralsib.ru/office-atm/office/data/4476","workt":"Пн-Пт 09:00-19:00, без перерыва; Сб 10:00-16:00, перерыв 13:00-13:30","lon":"53.369431","lat":"83.752844","rubric_id":["184105398","184105406"]},{"name":"УРАЛСИБ банк Филиал \"Южный\"","address":"город Краснодар, улица Красная, дом 152","country":"Россия","locality":"город Краснодар","street":"улица Красная","house":"152","phones":[{"number":" +7 (861) 2192700","for_people":"для физ. лиц"},{"number":" +7 (800) 7007716","for_people":"для юр. лиц"}],"info_p":"https://www.uralsib.ru/office-atm/office/data/4530","workt":"","lon":"45.036547","lat":"38.975295","rubric_id":["184105398","184105406"]},{"name":"УРАЛСИБ банк Дополнительный офис \"Ленинский\"","address":"город Краснодар, улица Красная, дом 147","country":"Россия","locality":"город Краснодар","street":"улица Красная","house":"147","phones":[{"number":" +7 (861) 2192700","for_people":"для физ. лиц"},{"number":" +7 (800) 7007716","for_people":"для юр. лиц"}],"info_p":"https://www.uralsib.ru/office-atm/office/data/4511","workt":"Пн-Пт 09:00-18:00, без перерыва; Сб 10:00-16:00, перерыв 13:00-13:30","lon":"45.049023","lat":"38.978493","rubric_id":["184105398","184105406"]},{"name":"УРАЛСИБ банк Дополнительный офис \"Юбилейный\"","address":"город Краснодар, проспект Чекистов, дом 31/2","country":"Россия","locality":"город Краснодар","street":"проспект Чекистов","house":"31","phones":[{"number":" +7 (861) 2192700","for_people":"для физ. лиц"},{"number":" +7 (800) 7007716","for_people":"для юр. лиц"}],"info_p":"https://www.uralsib.ru/office-atm/office/data/4512","workt":"Пн-Пт 09:00-18:00, без перерыва; Сб 10:00-16:00, перерыв 13:00-13:30","lon":"45.034031","lat":"38.919276","rubric_id":["184105398","184105406"]},{"name":"УРАЛСИБ банк Дополнительный офис \"Анапский\"","address":"город Анапа, улица Терская, дом 119","country":"Россия","locality":"город Анапа","street":"улица Терская","house":"119","phones":[{"number":" +7 (861) 2192700","for_people":"для физ. лиц"},{"number":" +7 (800) 7007716","for_people":"для юр. лиц"}],"info_p":"https://www.uralsib.ru/office-atm/office/data/4513","workt":"Пн-Пт 09:00-18:00, без перерыва; Сб 10:00-16:00, перерыв 13:00-13:30","lon":"44.896925","lat":"37.319484","rubric_id":["184105398","184105406"]},{"name":"УРАЛСИБ банк Дополнительный офис \"Адлерский\"","address":"город Сочи, улица Ромашек, дом 42","country":"Россия","locality":"город Сочи","street":"улица Ромашек","house":"42","phones":[{"number":" +7 (861) 2192700","for_people":"для физ. лиц"},{"number":" +7 (800) 7007716","for_people":"для юр. лиц"}],"info_p":"https://www.uralsib.ru/office-atm/office/data/4514","workt":"Пн-Пт 09:00-17:00, перерыв 13:00-14:00","lon":"43.434434","lat":"39.919559","rubric_id":["184105398","184105406"]},{"name":"УРАЛСИБ банк Дополнительный офис \"Ейский\"","address":"город Ейск, улица Победы, дом 111/1","country":"Россия","locality":"город Ейск","street":"улица Победы","house":"111","phones":[{"number":" +7 (861) 2192700","for_people":"для физ. лиц"},{"number":" +7 (800) 7007716","for_people":"для юр. лиц"}],"info_p":"https://www.uralsib.ru/office-atm/office/data/4515","workt":"Пн-Пт 09:00-18:00; Сб 10:00-16:00, перерыв 13:00-13:30","lon":"46.710943","lat":"38.277654","rubric_id":["184105398","184105406"]},{"name":"УРАЛСИБ банк Дополнительный офис \"Кропоткинский\"","address":"город Кропоткин, улица Красная, дом 195","country":"Россия","locality":"город Кропоткин","street":"улица Красная","house":"195","phones":[{"number":" +7 (861) 2192700","for_people":"для физ. лиц"},{"number":" +7 (800) 7007716","for_people":"для юр. лиц"}],"info_p":"https://www.uralsib.ru/office-atm/office/data/4516","workt":"Пн-Пт 09:00-18:00; Сб 10:00-16:00, перерыв 13:00-13:30","lon":"45.431366","lat":"40.549808","rubric_id":["184105398","184105406"]},{"name":"УРАЛСИБ банк Дополнительный офис \"Лазаревский\"","address":"город Сочи, улица Победы, дом 73А","country":"Россия","locality":"город Сочи","street":"улица Победы","house":"73","phones":[{"number":" +7 (861) 2192700","for_people":"для физ. лиц"},{"number":" +7 (800) 7007716","for_people":"для юр. лиц"}],"info_p":"https://www.uralsib.ru/office-atm/office/data/4517","workt":"Пн-Пт 09:00-17:00, перерыв 13:00-14:00","lon":"43.911155","lat":"39.328944","rubric_id":["184105398","184105406"]},{"name":"УРАЛСИБ банк Дополнительный офис \"Туапсинский\"","address":"город Туапсе, улица Герцена, дом 3","country":"Россия","locality":"город Туапсе","street":"улица Герцена","house":"3","phones":[{"number":" +7 (861) 2192700","for_people":"для физ. лиц"},{"number":" +7 (800) 7007716","for_people":"для юр. лиц"}],"info_p":"https://www.uralsib.ru/office-atm/office/data/4518","workt":"Пн-Пт 09:00-18:00, без перерыва","lon":"44.101098","lat":"39.077981","rubric_id":["184105398","184105406"]},{"name":"УРАЛСИБ банк Дополнительный офис \"Тимашевский\"","address":"город Тимашевск, улица Ленина, дом 89","country":"Россия","locality":"город Тимашевск","street":"улица Ленина","house":"89","phones":[{"number":" +7 (861) 2192700","for_people":"для физ. лиц"},{"number":" +7 (800) 7007716","for_people":"для юр. лиц"}],"info_p":"https://www.uralsib.ru/office-atm/office/data/4519","workt":"Пн-Пт 09:00-17:00, перерыв 13:00-14:00","lon":"45.616627","lat":"38.940018","rubric_id":["184105398","184105406"]},{"name":"УРАЛСИБ банк Дополнительный офис \"Прикубанский\"","address":"город Краснодар, улица Тургенева, дом 136","country":"Россия","locality":"город Краснодар","street":"улица Тургенева","house":"136","phones":[{"number":" +7 (861) 2192700","for_people":"для физ. лиц"},{"number":" +7 (800) 7007716","for_people":"для юр. лиц"}],"info_p":"https://www.uralsib.ru/office-atm/office/data/4520","workt":"Пн-Пт 09:00-18:00, без перерыва; Сб 10:00-16:00, перерыв 13:00-13:30","lon":"45.057912","lat":"38.962377","rubric_id":["184105398","184105406"]},{"name":"УРАЛСИБ банк Дополнительный офис \"Курганинский\"","address":"город Курганинск, улица Ленина, дом 51","country":"Россия","locality":"город Курганинск","street":"улица Ленина","house":"51","phones":[{"number":" +7 (861) 2192700","for_people":"для физ. лиц"},{"number":" +7 (800) 7007716","for_people":"для юр. лиц"}],"info_p":"https://www.uralsib.ru/office-atm/office/data/4521","workt":"Пн-Пт 09:00-17:00, перерыв 13:00-14:00","lon":"44.882231","lat":"40.592478","rubric_id":["184105398","184105406"]},{"name":"УРАЛСИБ банк Дополнительный офис \"Восточный\"","address":"город Краснодар, улица Кубанская Набережная, дом 25","country":"Россия","locality":"город Краснодар","street":"улица Кубанская Набережная","house":"25","phones":[{"number":" +7 (861) 2192700","for_people":"для физ. лиц"},{"number":" +7 (800) 7007716","for_people":"для юр. лиц"}],"info_p":"https://www.uralsib.ru/office-atm/office/data/4522","workt":"Пн-Пт 09:00-18:00, без перерыва","lon":"45.022099","lat":"38.959431","rubric_id":["184105398","184105406"]},{"name":"УРАЛСИБ банк Дополнительный офис №1","address":"город Краснодар, улица 40-летия Победы, дом 43","country":"Россия","locality":"город Краснодар","street":"улица 40-летия Победы","house":"43","phones":[{"number":" +7 (861) 2192700","for_people":"для физ. лиц"},{"number":" +7 (800) 7007716","for_people":"для юр. лиц"}],"info_p":"https://www.uralsib.ru/office-atm/office/data/4523","workt":"Пн-Пт 09:00-18:00, без перерыва; Сб 10:00-16:00, перерыв 13:00-13:30","lon":"45.05632","lat":"39.016276","rubric_id":["184105398","184105406"]},{"name":"УРАЛСИБ банк Дополнительный офис \"Карасунский\"","address":"город Краснодар, улица Сормовская, дом 12","country":"Россия","locality":"город Краснодар","street":"улица Сормовская","house":"12","phones":[{"number":" +7 (861) 2192700","for_people":"для физ. лиц"},{"number":" +7 (800) 7007716","for_people":"для юр. лиц"}],"info_p":"https://www.uralsib.ru/office-atm/office/data/4524","workt":"Пн-Пт 09:00-18:00, без перерыва; Сб 10:00-16:00, перерыв 13:00-13:30","lon":"45.023635","lat":"39.063528","rubric_id":["184105398","184105406"]},{"name":"УРАЛСИБ банк Дополнительный офис \"Кореновский\"","address":"город Кореновск, улица Красная, дом 25","country":"Россия","locality":"город Кореновск","street":"улица Красная","house":"25","phones":[{"number":" +7 (861) 2192700","for_people":"для физ. лиц"},{"number":" +7 (800) 7007716","for_people":"для юр. лиц"}],"info_p":"https://www.uralsib.ru/office-atm/office/data/4525","workt":"Пн-Пт 09:00-18:00, без перерыва","lon":"45.462293","lat":"39.448968","rubric_id":["184105398","184105406"]},{"name":"УРАЛСИБ банк Дополнительный офис \"Юго-западный\"","address":"город Краснодар, улица Красная, дом 52","country":"Россия","locality":"город Краснодар","street":"улица Красная","house":"52","phones":[{"number":" +7 (861) 2192700","for_people":"для физ. лиц"},{"number":" +7 (800) 7007716","for_people":"для юр. лиц"}],"info_p":"https://www.uralsib.ru/office-atm/office/data/4526","workt":"Пн-Пт 09:00-18:00, без перерыва","lon":"45.023004","lat":"38.970579","rubric_id":["184105398","184105406"]},{"name":"УРАЛСИБ банк Дополнительный офис \"Черемушкинский\"","address":"город Краснодар, улица Ставропольская, дом 131/2","country":"Россия","locality":"город Краснодар","street":"улица Ставропольская","house":"131","phones":[{"number":" +7 (861) 2192700","for_people":"для физ. лиц"},{"number":" +7 (800) 7007716","for_people":"для юр. лиц"}],"info_p":"https://www.uralsib.ru/office-atm/office/data/4527","workt":"Пн-Пт 09:00-18:00, без перерыва; Сб 10:00-16:00, перерыв 13:00-13:30","lon":"45.020494","lat":"39.025214","rubric_id":["184105398","184105406"]},{"name":"УРАЛСИБ банк Дополнительный офис \"Каневской\"","address":"cтаница Каневская, улица Горького, дом 123А","country":"Россия","locality":"cтаница Каневская","street":"улица Горького","house":"123","phones":[{"number":" +7 (861) 2192700","for_people":"для физ. лиц"},{"number":" +7 (800) 7007716","for_people":"для юр. лиц"}],"info_p":"https://www.uralsib.ru/office-atm/office/data/4528","workt":"Пн-Пт 09:00-17:00, перерыв 13:00-14:00","lon":"46.074565","lat":"38.967013","rubric_id":["184105398","184105406"]},{"name":"УРАЛСИБ банк Дополнительный офис \"Геленджикский\"","address":"город Геленджик, улица Кирова, дом 51","country":"Россия","locality":"город Геленджик","street":"улица Кирова","house":"51","phones":[{"number":" +7 (861) 2192700","for_people":"для физ. лиц"},{"number":" +7 (800) 7007716","for_people":"для юр. лиц"}],"info_p":"https://www.uralsib.ru/office-atm/office/data/4529","workt":"Пн-Пт 09:00-18:00, без перерыва","lon":"44.56071","lat":"38.082253","rubric_id":["184105398","184105406"]},{"name":"УРАЛСИБ банк Дополнительный офис \"Армавирский\"","address":"город Армавир, улица Ленина, дом 87/1","country":"Россия","locality":"город Армавир","street":"улица Ленина","house":"87","phones":[{"number":" +7 (861) 2192700","for_people":"для физ. лиц"},{"number":" +7 (800) 7007716","for_people":"для юр. лиц"}],"info_p":"https://www.uralsib.ru/office-atm/office/data/4531","workt":"Пн-Пт 09:00-18:00, без перерыва; Сб 10:00-16:00, перерыв 13:00-13:30","lon":"45.001709","lat":"41.123194","rubric_id":["184105398","184105406"]},{"name":"УРАЛСИБ банк Дополнительный офис \"Сочинский\"","address":"город Сочи, улица Московская, дом 5","country":"Россия","locality":"город Сочи","street":"улица Московская","house":"5","phones":[{"number":" +7 (861) 2192700","for_people":"для физ. лиц"},{"number":" +7 (800) 7007716","for_people":"для юр. лиц"}],"info_p":"https://www.uralsib.ru/office-atm/office/data/4532","workt":"Пн-Пт 09:00-18:00, без перерыва; Сб 10:00-16:00, перерыв 13:00-13:30","lon":"43.592655","lat":"39.725325","rubric_id":["184105398","184105406"]},{"name":"УРАЛСИБ банк Дополнительный офис \"Новороссийский\"","address":"город Новороссийск, улица Суворовская, дом 2б","country":"Россия","locality":"город Новороссийск","street":"улица Суворовская","house":"2","phones":[{"number":" +7 (861) 2192700","for_people":"для физ. лиц"},{"number":" +7 (800) 7007716","for_people":"для юр. лиц"}],"info_p":"https://www.uralsib.ru/office-atm/office/data/4533","workt":"Пн-Пт 09:00-19:00, без перерыва","lon":"44.705112","lat":"37.786653","rubric_id":["184105398","184105406"]},{"name":"УРАЛСИБ банк Дополнительный офис \"Центральный\"","address":"город Краснодар, улица Красная, дом 152","country":"Россия","locality":"город Краснодар","street":"улица Красная","house":"152","phones":[{"number":" +7 (861) 2192700","for_people":"для физ. лиц"},{"number":" +7 (800) 7007716","for_people":"для юр. лиц"}],"info_p":"https://www.uralsib.ru/office-atm/office/data/4534","workt":"Пн-Пт 09:00-20:00, без перерыва; Сб 10:00-16:00, без перерыва","lon":"45.036547","lat":"38.975295","rubric_id":["184105398","184105406"]},{"name":"УРАЛСИБ банк Операционный офис \"Свердловский\"","address":"город Красноярск, улица Гладкова, дом 4","country":"Россия","locality":"город Красноярск","street":"улица Гладкова","house":"4","phones":[{"number":" +7 (800) 2505757","for_people":"для физ. лиц"},{"number":" +7 (800) 7007716","for_people":"для юр. лиц"}],"info_p":"https://www.uralsib.ru/office-atm/office/data/4535","workt":"Пн-Пт 09:00-18:00, перерыв 13:00-14:00","lon":"55.990136","lat":"92.882351","rubric_id":["184105398","184105406"]},{"name":"УРАЛСИБ банк Операционный офис \"Левобережный\"","address":"город Красноярск, проспект Мира, дом 53","country":"Россия","locality":"город Красноярск","street":"проспект Мира","house":"53","phones":[{"number":" +7 (800) 2505757","for_people":"для физ. лиц"},{"number":" +7 (800) 7007716","for_people":"для юр. лиц"}],"info_p":"https://www.uralsib.ru/office-atm/office/data/4536","workt":"Пн-Пт 09:00-18:00, перерыв 13:00-14:00","lon":"56.011867","lat":"92.873592","rubric_id":["184105398","184105406"]},{"name":"УРАЛСИБ банк Операционный офис \"Красноярский\"","address":"город Красноярск, улица Взлётная, дом 57","country":"Россия","locality":"город Красноярск","street":"улица Взлётная","house":"57","phones":[{"number":" +7 (800) 2505757","for_people":"для физ. лиц"},{"number":" +7 (800) 7007716","for_people":"для юр. лиц"}],"info_p":"https://www.uralsib.ru/office-atm/office/data/4537","workt":"Пн-Пт 09:00-20:00, без перерыва; Сб 10:00-16:00, без перерыва","lon":"56.033243","lat":"92.893894","rubric_id":["184105398","184105406"]},{"name":"УРАЛСИБ банк Филиал, город Ставрополь","address":"город Ставрополь, улица Ленина, дом 235А","country":"Россия","locality":"город Ставрополь","street":"улица Ленина","house":"235","phones":[{"number":" +7 (800) 2505757","for_people":"для физ. лиц"},{"number":" +7 (800) 7007716","for_people":"для юр. лиц"}],"info_p":"https://www.uralsib.ru/office-atm/office/data/4663","workt":"Пн-Пт 09:00-18:00, перерыв 13:00-14:00","lon":"45.039521","lat":"41.96426","rubric_id":["184105398","184105406"]},{"name":"УРАЛСИБ банк Дополнительный офис № 1","address":"город Невинномысск, Бульвар Мира, дом 12","country":"Россия","locality":"город Невинномысск","street":"Бульвар Мира","house":"12","phones":[{"number":" +7 (800) 2505757","for_people":"для физ. лиц"},{"number":" +7 (800) 7007716","for_people":"для юр. лиц"}],"info_p":"https://www.uralsib.ru/office-atm/office/data/4664","workt":"Пн-Пт 09:00-17:00, перерыв 13:00-14:00","lon":"44.638607","lat":"41.940903","rubric_id":["184105398","184105406"]},{"name":"УРАЛСИБ банк Дополнительный офис №2","address":"город Пятигорск, улица Октябрьская, дом 46","country":"Россия","locality":"город Пятигорск","street":"улица Октябрьская","house":"46","phones":[{"number":" +7 (800) 2505757","for_people":"для физ. лиц"},{"number":" +7 (800) 7007716","for_people":"для юр. лиц"}],"info_p":"https://www.uralsib.ru/office-atm/office/data/4665","workt":"Пн-Пт 09:00-17:00, перерыв 13:00-14:00","lon":"44.03699","lat":"43.061597","rubric_id":["184105398","184105406"]},{"name":"УРАЛСИБ банк Операционный офис \"Архангельский\"","address":"город Архангельск, набережная Северной Двины, дом 68","country":"Россия","locality":"город Архангельск","street":"набережная Северной Двины","house":"68","phones":[{"number":" +7 (800) 2505757","for_people":"для физ. лиц"},{"number":" +7 (800) 7007716","for_people":"для юр. лиц"}],"info_p":"https://www.uralsib.ru/office-atm/office/data/4477","workt":"Пн-Пт 09:00-19:00, без перерыва","lon":"64.533144","lat":"40.524215","rubric_id":["184105398","184105406"]},{"name":"УРАЛСИБ банк Операционный офис \"Старооскольский\"","address":"город Старый Оскол, микрорайон Королева, дом 28А","country":"Россия","locality":"город Старый Оскол","street":"микрорайон Королева","house":"28","phones":[{"number":" +7 (800) 2505757","for_people":"для физ. лиц"},{"number":" +7 (800) 7007716","for_people":"для юр. лиц"}],"info_p":"https://www.uralsib.ru/office-atm/office/data/4478","workt":"Пн-Пт 09:00-18:00, перерыв 13:00-14:00","lon":"51.310502","lat":"37.899158","rubric_id":["184105398","184105406"]},{"name":"УРАЛСИБ банк Операционный офис \"Белгородский\"","address":"город Белгород, площадь Соборная, дом 1А","country":"Россия","locality":"город Белгород","street":"площадь Соборная","house":"1","phones":[{"number":" +7 (800) 2505757","for_people":"для физ. лиц"},{"number":" +7 (800) 7007716","for_people":"для юр. лиц"}],"info_p":"https://www.uralsib.ru/office-atm/office/data/4479","workt":"Пн-Пт 09:00-19:00, без перерыва; Сб 10:00-16:00, перерыв 13:00-13:30","lon":"50.596706","lat":"36.585875","rubric_id":["184105398","184105406"]},{"name":"УРАЛСИБ банк Операционный офис \"Бежицкий\"","address":"город Брянск, улица Ульянова, дом 7А","country":"Россия","locality":"город Брянск","street":"улица Ульянова","house":"7","phones":[{"number":" +7 (800) 2505757","for_people":"для физ. лиц"},{"number":" +7 (800) 7007716","for_people":"для юр. лиц"}],"info_p":"https://www.uralsib.ru/office-atm/office/data/4480","workt":"Пн-Пт 09:00-19:00, без перерыва","lon":"53.300207","lat":"34.309841","rubric_id":["184105398","184105406"]},{"name":"УРАЛСИБ банк Операционный офис \"Клинцовский\"","address":"город Клинцы, переулок Урицкого, дом 12","country":"Россия","locality":"город Клинцы","street":"переулок Урицкого","house":"12","phones":[{"number":" +7 (800) 2505757","for_people":"для физ. лиц"},{"number":" +7 (800) 7007716","for_people":"для юр. лиц"}],"info_p":"https://www.uralsib.ru/office-atm/office/data/4481","workt":"Пн-Пт 09:00-17:00, перерыв 13:00-14:00","lon":"52.754174","lat":"32.245584","rubric_id":["184105398","184105406"]},{"name":"УРАЛСИБ банк Операционный офис \"Брянский\"","address":"город Брянск, улица Любезного, дом 1","country":"Россия","locality":"город Брянск","street":"улица Любезного","house":"1","phones":[{"number":" +7 (800) 2505757","for_people":"для физ. лиц"},{"number":" +7 (800) 7007716","for_people":"для юр. лиц"}],"info_p":"https://www.uralsib.ru/office-atm/office/data/4482","workt":"Пн-Пт 09:00-19:00, без перерыва; Сб 10:00-16:00, без перерыва","lon":"53.235936","lat":"34.350103","rubric_id":["184105398","184105406"]},{"name":"УРАЛСИБ банк Операционный офис \"Кольчугинский\"","address":"город Кольчугино, улица 50 лет СССР, дом 4","country":"Россия","locality":"город Кольчугино","street":"улица 50 лет СССР","house":"4","phones":[{"number":" +7 (800) 2505757","for_people":"для физ. лиц"},{"number":" +7 (800) 7007716","for_people":"для юр. лиц"}],"info_p":"https://www.uralsib.ru/office-atm/office/data/4483","workt":"Пн-Пт 09:00-18:00, перерыв 13:00-14:00","lon":"56.297738","lat":"39.381953","rubric_id":["184105398","184105406"]},{"name":"УРАЛСИБ банк Операционный офис \"Ковровский\"","address":"город Ковров, проспект Ленина, дом 20","country":"Россия","locality":"город Ковров","street":"проспект Ленина","house":"20","phones":[{"number":" +7 (800) 2505757","for_people":"для физ. лиц"},{"number":" +7 (800) 7007716","for_people":"для юр. лиц"}],"info_p":"https://www.uralsib.ru/office-atm/office/data/4484","workt":"Пн-Пт 09:00-18:00, перерыв 13:00-14:00","lon":"56.363404","lat":"41.311849","rubric_id":["184105398","184105406"]},{"name":"УРАЛСИБ банк Операционный офис \"Гусь-Хрустальный\"","address":"город Гусь-Хрустальный, улица Каховского, дом 10","country":"Россия","locality":"город Гусь-Хрустальный","street":"улица Каховского","house":"10","phones":[{"number":" +7 (800) 2505757","for_people":"для физ. лиц"},{"number":" +7 (800) 7007716","for_people":"для юр. лиц"}],"info_p":"https://www.uralsib.ru/office-atm/office/data/4485","workt":"Пн-Пт 09:00-18:00, перерыв 13:00-14:00","lon":"55.62236","lat":"40.689514","rubric_id":["184105398","184105406"]},{"name":"УРАЛСИБ банк Операционный офис \"Петушки\"","address":"город Петушки, улица Ленина, дом 93","country":"Россия","locality":"город Петушки","street":"улица Ленина","house":"93","phones":[{"number":" +7 (800) 2505757","for_people":"для физ. лиц"},{"number":" +7 (800) 7007716","for_people":"для юр. лиц"}],"info_p":"https://www.uralsib.ru/office-atm/office/data/4486","workt":"Пн-Пт 09:00-17:00, перерыв 13:00-14:00","lon":"55.935561","lat":"39.469054","rubric_id":["184105398","184105406"]},{"name":"УРАЛСИБ банк Операционный офис \"Покровский\"","address":"город Покров, улица Советская, дом 42","country":"Россия","locality":"город Покров","street":"улица Советская","house":"42","phones":[{"number":" +7 (800) 2505757","for_people":"для физ. лиц"},{"number":" +7 (800) 7007716","for_people":"для юр. лиц"}],"info_p":"https://www.uralsib.ru/office-atm/office/data/4487","workt":"Пн-Пт 09:00-18:00, перерыв 13:00-14:00","lon":"55.919458","lat":"39.177793","rubric_id":["184105398","184105406"]},{"name":"УРАЛСИБ банк Операционный офис \"Владимирский\"","address":"город Владимир, улица Горького, дом 56а","country":"Россия","locality":"город Владимир","street":"улица Горького","house":"56","phones":[{"number":" +7 (800) 2505757","for_people":"для физ. лиц"},{"number":" +7 (800) 7007716","for_people":"для юр. лиц"}],"info_p":"https://www.uralsib.ru/office-atm/office/data/4488","workt":"Пн-Пт 09:00-19:00, без перерыва; Сб 10:00-16:00, перерыв 13:00-13:30","lon":"56.144116","lat":"40.388992","rubric_id":["184105398","184105406"]},{"name":"УРАЛСИБ банк Операционный офис \"Волгоградский\"","address":"город Волгоград, улица Краснознаменская, дом 7","country":"Россия","locality":"город Волгоград","street":"улица Краснознаменская","house":"7","phones":[{"number":" +7 (800) 2505757","for_people":"для физ. лиц"},{"number":" +7 (800) 7007716","for_people":"для юр. лиц"}],"info_p":"https://www.uralsib.ru/office-atm/office/data/4489","workt":"Пн-Пт 09:00-18:00","lon":"48.703845","lat":"44.510256","rubric_id":["184105398","184105406"]},{"name":"УРАЛСИБ банк Операционный офис \"Череповец\"","address":"город Череповец, проспект Советский, дом 57б","country":"Россия","locality":"город Череповец","street":"проспект Советский","house":"57","phones":[{"number":" +7 (800) 2505757","for_people":"для физ. лиц"},{"number":" +7 (800) 7007716","for_people":"для юр. лиц"}],"info_p":"https://www.uralsib.ru/office-atm/office/data/4490","workt":"Пн-Пт 09:00-18:00, без перерыва","lon":"59.125845","lat":"37.930644","rubric_id":["184105398","184105406"]},{"name":"УРАЛСИБ банк Операционный офис \"Вологодский\"","address":"город Вологда, улица Лермонтова, дом 33","country":"Россия","locality":"город Вологда","street":"улица Лермонтова","house":"33","phones":[{"number":" +7 (800) 2505757","for_people":"для физ. лиц"},{"number":" +7 (800) 7007716","for_people":"для юр. лиц"}],"info_p":"https://www.uralsib.ru/office-atm/office/data/4491","workt":"Пн-Пт 09:00-19:00, без перерыва; Сб 10:00-16:00, перерыв 13:00-13:30","lon":"59.218406","lat":"39.896481","rubric_id":["184105398","184105406"]},{"name":"УРАЛСИБ банк Операционный офис \"Воронежский\"","address":"город Воронеж, улица Пушкинская, дом 41","country":"Россия","locality":"город Воронеж","street":"улица Пушкинская","house":"41","phones":[{"number":" +7 (800) 2505757","for_people":"для физ. лиц"},{"number":" +7 (800) 7007716","for_people":"для юр. лиц"}],"info_p":"https://www.uralsib.ru/office-atm/office/data/4492","workt":"Пн-Пт 09:00-19:00, без перерыва; Сб 10:00-16:00, без перерыва","lon":"51.657775","lat":"39.189921","rubric_id":["184105398","184105406"]},{"name":"УРАЛСИБ банк Операционный офис \"Ангарский\"","address":"город Ангарск, микрорайон 22, дом 2","country":"Россия","locality":"город Ангарск","street":"микрорайон 22","house":"2","phones":[{"number":" +7 (800) 2505757","for_people":"для физ. лиц"},{"number":" +7 (800) 7007716","for_people":"для юр. лиц"}],"info_p":"https://www.uralsib.ru/office-atm/office/data/4493","workt":"Пн-Пт 09:00-18:00, без перерыва","lon":"52.504097","lat":"103.854248","rubric_id":["184105398","184105406"]},{"name":"УРАЛСИБ банк Операционный офис \"Иркутский\"","address":"город Иркутск, улица Горького, дом 42","country":"Россия","locality":"город Иркутск","street":"улица Горького","house":"42","phones":[{"number":" +7 (800) 2505757","for_people":"для физ. лиц"},{"number":" +7 (800) 7007716","for_people":"для юр. лиц"}],"info_p":"https://www.uralsib.ru/office-atm/office/data/4494","workt":"Пн-Пт 09:00-19:00, без перерыва; Сб 10:00-16:00, перерыв 13:00-13:30","lon":"52.285401","lat":"104.288727","rubric_id":["184105398","184105406"]},{"name":"УРАЛСИБ банк Операционный офис \"Янтарь\"","address":"город Калининград, проспект Ленинский, дом 95-101","country":"Россия","locality":"город Калининград","street":"проспект Ленинский","house":"95-101","phones":[{"number":" +7 (800) 2505757","for_people":"для физ. лиц"},{"number":" +7 (800) 7007716","for_people":"для юр. лиц"}],"info_p":"https://www.uralsib.ru/office-atm/office/data/4495","workt":"Пн-Пт 09:00-18:00, без перерыва","lon":"54.70379","lat":"20.506086","rubric_id":["184105398","184105406"]},{"name":"УРАЛСИБ банк Операционный офис \"Город Светлый\"","address":"город Светлый, бульвар Нахимова, дом 1-1а","country":"Россия","locality":"город Светлый","street":"бульвар Нахимова","house":"1-1","phones":[{"number":" +7 (800) 2505757","for_people":"для физ. лиц"},{"number":" +7 (800) 7007716","for_people":"для юр. лиц"}],"info_p":"https://www.uralsib.ru/office-atm/office/data/4496","workt":"Пн-Пт 09:00-18:00","lon":"54.672919","lat":"20.132467","rubric_id":["184105398","184105406"]},{"name":"УРАЛСИБ банк Операционный офис \"Калининградский\"","address":"город Калининград, улица Генделя, дом 3А","country":"Россия","locality":"город Калининград","street":"улица Генделя","house":"3","phones":[{"number":" +7 (800) 2505757","for_people":"для физ. лиц"},{"number":" +7 (800) 7007716","for_people":"для юр. лиц"}],"info_p":"https://www.uralsib.ru/office-atm/office/data/4497","workt":"Пн-Пт 09:00-19:00, без перерыва","lon":"54.721614","lat":"20.496608","rubric_id":["184105398","184105406"]},{"name":"УРАЛСИБ банк Операционный офис \"Беловский\"","address":"город Белово, улица Октябрьская, дом 8","country":"Россия","locality":"город Белово","street":"улица Октябрьская","house":"8","phones":[{"number":" +7 (800) 2505757","for_people":"для физ. лиц"},{"number":" +7 (800) 7007716","for_people":"для юр. лиц"}],"info_p":"https://www.uralsib.ru/office-atm/office/data/4498","workt":"Пн-Пт 09:00-17:00, перерыв 13:00-14:00","lon":"54.425938","lat":"86.298616","rubric_id":["184105398","184105406"]},{"name":"УРАЛСИБ банк Операционный офис \"Калтанский\"","address":"город Калтан, проспект Мира, дом 65А","country":"Россия","locality":"город Калтан","street":"проспект Мира","house":"65","phones":[{"number":" +7 (800) 2505757","for_people":"для физ. лиц"},{"number":" +7 (800) 7007716","for_people":"для юр. лиц"}],"info_p":"https://www.uralsib.ru/office-atm/office/data/4499","workt":"Пн-Пт 09:00-18:00","lon":"53.507815","lat":"87.276432","rubric_id":["184105398","184105406"]},{"name":"УРАЛСИБ банк Операционный офис \"Киселёвский\"","address":"город Киселёвск, улица Ленина, дом 28","country":"Россия","locality":"город Киселёвск","street":"улица Ленина","house":"28","phones":[{"number":" +7 (800) 2505757","for_people":"для физ. лиц"},{"number":" +7 (800) 7007716","for_people":"для юр. лиц"}],"info_p":"https://www.uralsib.ru/office-atm/office/data/4500","workt":"Пн-Пт 09:00-18:00, без перерыва","lon":"54.005231","lat":"86.634164","rubric_id":["184105398","184105406"]},{"name":"УРАЛСИБ банк Операционный офис \"Междуреченский\"","address":"город Междуреченск, проспект Строителей, дом 18","country":"Россия","locality":"город Междуреченск","street":"проспект Строителей","house":"18","phones":[{"number":" +7 (800) 2505757","for_people":"для физ. лиц"},{"number":" +7 (800) 7007716","for_people":"для юр. лиц"}],"info_p":"https://www.uralsib.ru/office-atm/office/data/4501","workt":"Пн-Пт 09:00-18:00, без перерыва","lon":"53.686958","lat":"88.068567","rubric_id":["184105398","184105406"]},{"name":"УРАЛСИБ банк Операционный офис \"Молодежный\"","address":"город Кемерово, улица Тухачевского, дом 29","country":"Россия","locality":"город Кемерово","street":"улица Тухачевского","house":"29","phones":[{"number":" +7 (800) 2505757","for_people":"для физ. лиц"},{"number":" +7 (800) 7007716","for_people":"для юр. лиц"}],"info_p":"https://www.uralsib.ru/office-atm/office/data/4502","workt":"Пн-Пт 09:00-18:00, без перерыва","lon":"55.332319","lat":"86.130586","rubric_id":["184105398","184105406"]},{"name":"УРАЛСИБ банк Операционный офис \"Новокузнецкий\"","address":"город Новокузнецк, улица Энтузиастов, дом 21","country":"Россия","locality":"город Новокузнецк","street":"улица Энтузиастов","house":"21","phones":[{"number":" +7 (800) 2505757","for_people":"для физ. лиц"},{"number":" +7 (800) 7007716","for_people":"для юр. лиц"}],"info_p":"https://www.uralsib.ru/office-atm/office/data/4503","workt":"Пн-Пт 09:00-19:00, без перерыва; Сб 10:00-16:00, перерыв 13:00-13:30","lon":"53.759256","lat":"87.110954","rubric_id":["184105398","184105406"]},{"name":"УРАЛСИБ банк Операционный офис \"Осинниковский\"","address":"город Осинники, улица Революции, дом 2","country":"Россия","locality":"город Осинники","street":"улица Революции","house":"2","phones":[{"number":" +7 (800) 2505757","for_people":"для физ. лиц"},{"number":" +7 (800) 7007716","for_people":"для юр. лиц"}],"info_p":"https://www.uralsib.ru/office-atm/office/data/4504","workt":"Пн-Пт 09:00-19:00, без перерыва; Сб 10:00-16:00, перерыв 13:00-13:30","lon":"53.603157","lat":"87.331607","rubric_id":["184105398","184105406"]},{"name":"УРАЛСИБ банк Операционный офис \"Прокопьевский\"","address":"город Прокопьевск, проспект Шахтеров, дом 8","country":"Россия","locality":"город Прокопьевск","street":"проспект Шахтеров","house":"8","phones":[{"number":" +7 (800) 2505757","for_people":"для физ. лиц"},{"number":" +7 (800) 7007716","for_people":"для юр. лиц"}],"info_p":"https://www.uralsib.ru/office-atm/office/data/4505","workt":"Пн-Пт 09:00-18:00, без перерыва","lon":"53.881313","lat":"86.75302","rubric_id":["184105398","184105406"]},{"name":"УРАЛСИБ банк Операционный офис \"Рудничный\"","address":"город Кемерово, проспект Шахтеров, дом 83","country":"Россия","locality":"город Кемерово","street":"проспект Шахтеров","house":"83","phones":[{"number":" +7 (800) 2505757","for_people":"для физ. лиц"},{"number":" +7 (800) 7007716","for_people":"для юр. лиц"}],"info_p":"https://www.uralsib.ru/office-atm/office/data/4506","workt":"Пн-Пт 09:00-18:00, без перерыва","lon":"55.399448","lat":"86.115863","rubric_id":["184105398","184105406"]},{"name":"УРАЛСИБ банк Операционный офис \"Тырганский\"","address":"город Прокопьевск, проспект Гагарина, дом 24","country":"Россия","locality":"город Прокопьевск","street":"проспект Гагарина","house":"24","phones":[{"number":" +7 (800) 2505757","for_people":"для физ. лиц"},{"number":" +7 (800) 7007716","for_people":"для юр. лиц"}],"info_p":"https://www.uralsib.ru/office-atm/office/data/4507","workt":"Пн-Пт 09:00-18:00, без перерыва","lon":"53.872258","lat":"86.650145","rubric_id":["184105398","184105406"]},{"name":"УРАЛСИБ банк Операционный офис \"Городской\"","address":"город Новокузнецк, улица Тольятти, дом 26","country":"Россия","locality":"город Новокузнецк","street":"улица Тольятти","house":"26","phones":[{"number":" +7 (800) 2505757","for_people":"для физ. лиц"},{"number":" +7 (800) 7007716","for_people":"для юр. лиц"}],"info_p":"https://www.uralsib.ru/office-atm/office/data/4508","workt":"Пн-Пт 09:00-19:00, без перерыва; Сб 10:00-16:00, перерыв 13:00-13:30","lon":"53.7534","lat":"87.158421","rubric_id":["184105398","184105406"]},{"name":"УРАЛСИБ банк Операционный офис \"Юргинский\"","address":"город Юрга, улица Строительная, дом 23А","country":"Россия","locality":"город Юрга","street":"улица Строительная","house":"23","phones":[{"number":" +7 (800) 2505757","for_people":"для физ. лиц"},{"number":" +7 (800) 7007716","for_people":"для юр. лиц"}],"info_p":"https://www.uralsib.ru/office-atm/office/data/4509","workt":"Пн-Пт 09:00-18:00, без перерыва; Сб 10:00-16:00, перерыв 13:00-13:30","lon":"55.715794","lat":"84.918777","rubric_id":["184105398","184105406"]},{"name":"УРАЛСИБ банк Операционный офис \"Кузбасский\"","address":"город Кемерово, проспект Октябрьский, дом 2","country":"Россия","locality":"город Кемерово","street":"проспект Октябрьский","house":"2","phones":[{"number":" +7 (800) 2505757","for_people":"для физ. лиц"},{"number":" +7 (800) 7007716","for_people":"для юр. лиц"}],"info_p":"https://www.uralsib.ru/office-atm/office/data/4510","workt":"Пн-Пт 09:00-19:00, без перерыва; Сб 10:00-16:00, без перерыва","lon":"55.349117","lat":"86.104661","rubric_id":["184105398","184105406"]},{"name":"УРАЛСИБ банк Операционный офис \"Курганский\"","address":"город Курган, улица Красина, дом 69","country":"Россия","locality":"город Курган","street":"улица Красина","house":"69","phones":[{"number":" +7 (800) 2505757","for_people":"для физ. лиц"},{"number":" +7 (800) 7007716","for_people":"для юр. лиц"}],"info_p":"https://www.uralsib.ru/office-atm/office/data/4538","workt":"Пн-Пт 09:00-18:00, без перерыва","lon":"55.4394","lat":"65.32449","rubric_id":["184105398","184105406"]},{"name":"УРАЛСИБ банк Операционный офис \"Липецкий\"","address":"город Липецк, улица Космонавтов, дом 20/1","country":"Россия","locality":"город Липецк","street":"улица Космонавтов","house":"20","phones":[{"number":" +7 (800) 2505757","for_people":"для физ. лиц"},{"number":" +7 (800) 7007716","for_people":"для юр. лиц"}],"info_p":"https://www.uralsib.ru/office-atm/office/data/4539","workt":"Пн-Пт 09:00-19:00, без перерыва; Сб 10:00-16:00, без перерыва","lon":"52.617116","lat":"39.573609","rubric_id":["184105398","184105406"]},{"name":"УРАЛСИБ банк Дополнительный офис \"Воскресенск\"","address":"город Воскресенск, улица Железнодорожная, дом 28","country":"Россия","locality":"город Воскресенск","street":"улица Железнодорожная","house":"28","phones":[{"number":" +7 (800) 2505757","for_people":"для физ. лиц"},{"number":" +7 (800) 7007716","for_people":"для юр. лиц"}],"info_p":"https://www.uralsib.ru/office-atm/office/data/4416","workt":"Пн-Пт 09:00-18:00, без перерыва","lon":"55.326665","lat":"38.682238","rubric_id":["184105398","184105406"]},{"name":"УРАЛСИБ банк Дополнительный офис \"Серпухов\"","address":"город Серпухов, улица Советская, дом 70","country":"Россия","locality":"город Серпухов","street":"улица Советская","house":"70","phones":[{"number":" +7 (800) 2505757","for_people":"для физ. лиц"},{"number":" +7 (800) 7007716","for_people":"для юр. лиц"}],"info_p":"https://www.uralsib.ru/office-atm/office/data/4417","workt":"Пн-Пт 09:00-19:00, без перерыва; Сб 10:00-16:00, перерыв 13:00-13:30","lon":"54.920765","lat":"37.426249","rubric_id":["184105398","184105406"]},{"name":"УРАЛСИБ банк Дополнительный офис \"Дубна\"","address":"город Дубна, улица Строителей, дом 4","country":"Россия","locality":"город Дубна","street":"улица Строителей","house":"4","phones":[{"number":" +7 (800) 2505757","for_people":"для физ. лиц"},{"number":" +7 (800) 7007716","for_people":"для юр. лиц"}],"info_p":"https://www.uralsib.ru/office-atm/office/data/4418","workt":"Пн-Пт 09:00-17:00, перерыв 13:00-14:00","lon":"56.747388","lat":"37.184773","rubric_id":["184105398","184105406"]},{"name":"УРАЛСИБ банк Дополнительный офис \"Сергиев Посад\"","address":"город Сергиев Посад, проспект Красной Армии, дом 4","country":"Россия","locality":"город Сергиев Посад","street":"проспект Красной Армии","house":"4","phones":[{"number":" +7 (800) 2505757","for_people":"для физ. лиц"},{"number":" +7 (800) 7007716","for_people":"для юр. лиц"}],"info_p":"https://www.uralsib.ru/office-atm/office/data/4419","workt":"Пн-Пт 09:00-18:00, без перерыва","lon":"56.29499","lat":"38.128525","rubric_id":["184105398","184105406"]},{"name":"УРАЛСИБ банк Дополнительный офис \"Жуковский\"","address":"город Жуковский, улица Гагарина, дом 58","country":"Россия","locality":"город Жуковский","street":"улица Гагарина","house":"58","phones":[{"number":" +7 (800) 2505757","for_people":"для физ. лиц"},{"number":" +7 (800) 7007716","for_people":"для юр. лиц"}],"info_p":"https://www.uralsib.ru/office-atm/office/data/4420","workt":"Пн-Пт 09:00-19:00, без перерыва; Сб 10:00-16:00, перерыв 13:00-13:30","lon":"55.60907","lat":"38.089942","rubric_id":["184105398","184105406"]},{"name":"УРАЛСИБ банк Дополнительный офис \"Раменский\"","address":"город Раменское, улица Воровского, дом 3","country":"Россия","locality":"город Раменское","street":"улица Воровского","house":"3","phones":[{"number":" +7 (800) 2505757","for_people":"для физ. лиц"},{"number":" +7 (800) 7007716","for_people":"для юр. лиц"}],"info_p":"https://www.uralsib.ru/office-atm/office/data/4421","workt":"Пн-Пт 09:00-19:00, без перерыва","lon":"55.571566","lat":"38.21232","rubric_id":["184105398","184105406"]},{"name":"УРАЛСИБ банк Дополнительный офис \"Одинцовский\"","address":"город Одинцово, улица Маршала Неделина, дом 2","country":"Россия","locality":"город Одинцово","street":"улица Маршала Неделина","house":"2","phones":[{"number":" +7 (800) 2505757","for_people":"для физ. лиц"},{"number":" +7 (800) 7007716","for_people":"для юр. лиц"}],"info_p":"https://www.uralsib.ru/office-atm/office/data/4452","workt":"Пн-Пт 09:00-19:00, без перерыва; Сб 10:00-16:00, перерыв 13:00-13:30","lon":"55.679884","lat":"37.269062","rubric_id":["184105398","184105406"]},{"name":"УРАЛСИБ банк Операционный офис \"Проспект Гагарина\"","address":"город Нижний Новгород, проспект Гагарина, дом 27","country":"Россия","locality":"город Нижний Новгород","street":"проспект Гагарина","house":"27","phones":[{"number":" +7 (800) 2505757","for_people":"для физ. лиц"},{"number":" +7 (800) 7007716","for_people":"для юр. лиц"}],"info_p":"https://www.uralsib.ru/office-atm/office/data/4540","workt":"Пн-Пт 09:00-18:00, перерыв 13:00-14:00","lon":"56.293777","lat":"43.980115","rubric_id":["184105398","184105406"]},{"name":"УРАЛСИБ банк Операционный офис \"Сормовский\"","address":"город Нижний Новгород, улица Свободы, дом 63","country":"Россия","locality":"город Нижний Новгород","street":"улица Свободы","house":"63","phones":[{"number":" +7 (800) 2505757","for_people":"для физ. лиц"},{"number":" +7 (800) 7007716","for_people":"для юр. лиц"}],"info_p":"https://www.uralsib.ru/office-atm/office/data/4541","workt":"Пн-Пт 09:00-17:30, перерыв 13:00-14:00","lon":"56.362646","lat":"43.861834","rubric_id":["184105398","184105406"]},{"name":"УРАЛСИБ банк Операционный офис \"Дзержинский\"","address":"город Дзержинск, площадь Дзержинского, дом 5","country":"Россия","locality":"город Дзержинск","street":"площадь Дзержинского","house":"5","phones":[{"number":" +7 (800) 2505757","for_people":"для физ. лиц"},{"number":" +7 (800) 7007716","for_people":"для юр. лиц"}],"info_p":"https://www.uralsib.ru/office-atm/office/data/4542","workt":"Пн-Пт 09:00-18:00, перерыв 13:00-14:00","lon":"56.238422","lat":"43.463206","rubric_id":["184105398","184105406"]},{"name":"УРАЛСИБ банк Операционный офис \"Белинский\"","address":"город Нижний Новгород, улица Белинского, дом 124","country":"Россия","locality":"город Нижний Новгород","street":"улица Белинского","house":"124","phones":[{"number":" +7 (800) 2505757","for_people":"для физ. лиц"},{"number":" +7 (800) 7007716","for_people":"для юр. лиц"}],"info_p":"https://www.uralsib.ru/office-atm/office/data/4543","workt":"Пн-Пт 10:00-19:00, перерыв 14:00-15:00","lon":"56.319444","lat":"44.027034","rubric_id":["184105398","184105406"]},{"name":"УРАЛСИБ банк Операционный офис \"Автозаводский\"","address":"город Нижний Новгород, улица Юлиуса Фучика, дом 3А","country":"Россия","locality":"город Нижний Новгород","street":"улица Юлиуса Фучика","house":"3","phones":[{"number":" +7 (800) 2505757","for_people":"для физ. лиц"},{"number":" +7 (800) 7007716","for_people":"для юр. лиц"}],"info_p":"https://www.uralsib.ru/office-atm/office/data/4544","workt":"Пн-Пт 09:00-18:00, перерыв 13:00-14:00","lon":"56.240163","lat":"43.868868","rubric_id":["184105398","184105406"]},{"name":"УРАЛСИБ банк Операционный офис \"Нижегородский\"","address":"город Нижний Новгород, улица Пискунова, дом 29","country":"Россия","locality":"город Нижний Новгород","street":"улица Пискунова","house":"29","phones":[{"number":" +7 (800) 2505757","for_people":"для физ. лиц"},{"number":" +7 (800) 7007716","for_people":"для юр. лиц"}],"info_p":"https://www.uralsib.ru/office-atm/office/data/4545","workt":"Пн-Пт 09:00-18:00","lon":"56.324616","lat":"44.010119","rubric_id":["184105398","184105406"]},{"name":"УРАЛСИБ банк Операционный офис \"На Варварке\"","address":"город Нижний Новгород, улица Варварская, дом 13","country":"Россия","locality":"город Нижний Новгород","street":"улица Варварская","house":"13","phones":[{"number":" +7 (800) 2505757","for_people":"для физ. лиц"},{"number":" +7 (800) 7007716","for_people":"для юр. лиц"}],"info_p":"https://www.uralsib.ru/office-atm/office/data/4546","workt":"Пн-Пт 09:00-18:00, без перерыва; Сб 10:00-16:00, перерыв 13:00-13:30","lon":"56.321786","lat":"44.011439","rubric_id":["184105398","184105406"]},{"name":"УРАЛСИБ банк Операционный офис \"Боровичи\"","address":"город Боровичи, улица Ленинградская, дом 40","country":"Россия","locality":"город Боровичи","street":"улица Ленинградская","house":"40","phones":[{"number":" +7 (800) 2505757","for_people":"для физ. лиц"},{"number":" +7 (800) 7007716","for_people":"для юр. лиц"}],"info_p":"https://www.uralsib.ru/office-atm/office/data/4547","workt":"Пн-Пт 09:00-18:00, перерыв 13:00-14:00","lon":"58.385369","lat":"33.898385","rubric_id":["184105398","184105406"]},{"name":"УРАЛСИБ банк Операционный офис \"Новгородский\"","address":"город Великий Новгород, улица Большая Санкт-Петербургская, дом 22","country":"Россия","locality":"город Великий Новгород","street":"улица Большая Санкт-Петербургская","house":"22","phones":[{"number":" +7 (800) 2505757","for_people":"для физ. лиц"},{"number":" +7 (800) 7007716","for_people":"для юр. лиц"}],"info_p":"https://www.uralsib.ru/office-atm/office/data/4548","workt":"Пн-Пт 09:00-19:00, без перерыва; Сб 10:00-16:00, перерыв 13:00-13:30","lon":"58.532264","lat":"31.26987","rubric_id":["184105398","184105406"]},{"name":"УРАЛСИБ банк Филиал, город Новосибирск","address":"город Новосибирск, Красный проспект, дом 184/1","country":"Россия","locality":"город Новосибирск","street":"Красный проспект","house":"184","phones":[{"number":" +7 (800) 2505757","for_people":"для физ. лиц"},{"number":" +7 (800) 7007716","for_people":"для юр. лиц"}],"info_p":"https://www.uralsib.ru/office-atm/office/data/4549","workt":"Пн-Пт 09:00-20:00, без перерыва; Сб 10:00-16:00, без перерыва","lon":"55.057858","lat":"82.913531","rubric_id":["184105398","184105406"]},{"name":"УРАЛСИБ банк Дополнительный офис \"Отделение \"Академическое\"","address":"город Новосибирск, проспект Лаврентьева, дом 6","country":"Россия","locality":"город Новосибирск","street":"проспект Лаврентьева","house":"6","phones":[{"number":" +7 (800) 2505757","for_people":"для физ. лиц"},{"number":" +7 (800) 7007716","for_people":"для юр. лиц"}],"info_p":"https://www.uralsib.ru/office-atm/office/data/4550","workt":"Пн-Пт 09:00-18:00","lon":"54.851319","lat":"83.102392","rubric_id":["184105398","184105406"]},{"name":"УРАЛСИБ банк Дополнительный офис \"Отделение \"Дзержинское\"","address":"город Новосибирск, улица Планетная блок В, дом 30, корпус 2","country":"Россия","locality":"город Новосибирск","street":"улица Планетная блок В","house":"30","phones":[{"number":" +7 (800) 2505757","for_people":"для физ. лиц"},{"number":" +7 (800) 7007716","for_people":"для юр. лиц"}],"info_p":"https://www.uralsib.ru/office-atm/office/data/4551","workt":"Пн-Пт 09:00-18:00, без перерыва","lon":"55.050158","lat":"82.959066","rubric_id":["184105398","184105406"]},{"name":"УРАЛСИБ банк Дополнительный офис \"Отделение \"Центральное\"","address":"город Новосибирск, улица Орджоникидзе, дом 23","country":"Россия","locality":"город Новосибирск","street":"улица Орджоникидзе","house":"23","phones":[{"number":" +7 (800) 2505757","for_people":"для физ. лиц"},{"number":" +7 (800) 7007716","for_people":"для юр. лиц"}],"info_p":"https://www.uralsib.ru/office-atm/office/data/4552","workt":"Пн-Пт 09:00-19:00, без перерыва","lon":"55.031334","lat":"82.917986","rubric_id":["184105398","184105406"]},{"name":"УРАЛСИБ банк Дополнительный офис \"Отделение \"Октябрьское\"","address":"город Новосибирск, улица Никитина, дом 62","country":"Россия","locality":"город Новосибирск","street":"улица Никитина","house":"62","phones":[{"number":" +7 (800) 2505757","for_people":"для физ. лиц"},{"number":" +7 (800) 7007716","for_people":"для юр. лиц"}],"info_p":"https://www.uralsib.ru/office-atm/office/data/4553","workt":"Пн-Пт 09:00-17:00, перерыв 13:00-14:00","lon":"55.011624","lat":"82.96071","rubric_id":["184105398","184105406"]},{"name":"УРАЛСИБ банк Дополнительный офис \"Отделение \"Ленинское\"","address":"город Новосибирск, улица Блюхера, дом 19","country":"Россия","locality":"город Новосибирск","street":"улица Блюхера","house":"19","phones":[{"number":" +7 (800) 2505757","for_people":"для физ. лиц"},{"number":" +7 (800) 7007716","for_people":"для юр. лиц"}],"info_p":"https://www.uralsib.ru/office-atm/office/data/4554","workt":"Пн-Пт 09:00-19:00, без перерыва; Сб 10:00-16:00, без перерыва","lon":"54.985039","lat":"82.891279","rubric_id":["184105398","184105406"]},{"name":"УРАЛСИБ банк Операционный офис \"Омск-Центральный\"","address":"город Омск, проспект Карла Маркса, дом 12","country":"Россия","locality":"город Омск","street":"проспект Карла Маркса","house":"12","phones":[{"number":" +7 (800) 2505757","for_people":"для физ. лиц"},{"number":" +7 (800) 7007716","for_people":"для юр. лиц"}],"info_p":"https://www.uralsib.ru/office-atm/office/data/4555","workt":"Пн-Пт 09:00-20:00, без перерыва; Сб 10:00-16:00, перерыв 13:00-13:30","lon":"54.972282","lat":"73.381965","rubric_id":["184105398","184105406"]},{"name":"УРАЛСИБ банк Операционный офис \"Омск-Юбилейный\"","address":"город Омск, улица Ленина угол Щербанева, дом 21/2","country":"Россия","locality":"город Омск","street":"улица Ленина угол Щербанева","house":"21/2","phones":[{"number":" +7 (800) 2505757","for_people":"для физ. лиц"},{"number":" +7 (800) 7007716","for_people":"для юр. лиц"}],"info_p":"https://www.uralsib.ru/office-atm/office/data/4556","workt":"Пн-Пт 09:00-18:00, перерыв 13:00-14:00","lon":"54.983768","lat":"73.376243","rubric_id":["184105398","184105406"]},{"name":"УРАЛСИБ банк Операционный офис \"Омск-Нефтяники\"","address":"город Омск, проспект Мира, дом 54","country":"Россия","locality":"город Омск","street":"проспект Мира","house":"54","phones":[{"number":" +7 (800) 2505757","for_people":"для физ. лиц"},{"number":" +7 (800) 7007716","for_people":"для юр. лиц"}],"info_p":"https://www.uralsib.ru/office-atm/office/data/4557","workt":"Пн-Пт 09:00-18:00, перерыв 13:00-14:00; Сб 10:00-16:00, перерыв 13:00-13:30","lon":"55.029456","lat":"73.280599","rubric_id":["184105398","184105406"]},{"name":"УРАЛСИБ банк Операционный офис \"Омск-Левобережный\"","address":"город Омск, улица 70 лет Октября, дом 16, корпус 4","country":"Россия","locality":"город Омск","street":"улица 70 лет Октября","house":"16","phones":[{"number":" +7 (800) 2505757","for_people":"для физ. лиц"},{"number":" +7 (800) 7007716","for_people":"для юр. лиц"}],"info_p":"https://www.uralsib.ru/office-atm/office/data/4558","workt":"Пн-Пт 09:00-18:00, без перерыва; Сб 10:00-16:00, перерыв 13:00-13:30","lon":"54.983747","lat":"73.31779","rubric_id":["184105398","184105406"]},{"name":"УРАЛСИБ банк Операционный офис \"Омский\"","address":"город Омск, улица Богдана Хмельницкого, дом 283","country":"Россия","locality":"город Омск","street":"улица Богдана Хмельницкого","house":"283","phones":[{"number":" +7 (800) 2505757","for_people":"для физ. лиц"},{"number":" +7 (800) 7007716","for_people":"для юр. лиц"}],"info_p":"https://www.uralsib.ru/office-atm/office/data/4559","workt":"Пн-Пт 09:00-19:00","lon":"54.96054","lat":"73.415167","rubric_id":["184105398","184105406"]},{"name":"УРАЛСИБ банк Операционный офис \"Орловский\"","address":"город Орёл, улица Октябрьская, дом 58","country":"Россия","locality":"город Орёл","street":"улица Октябрьская","house":"58","phones":[{"number":" +7 (800) 2505757","for_people":"для физ. лиц"},{"number":" +7 (800) 7007716","for_people":"для юр. лиц"}],"info_p":"https://www.uralsib.ru/office-atm/office/data/4560","workt":"Пн-Пт 09:00-19:00, без перерыва; Сб 10:00-16:00, без перерыва","lon":"52.979795","lat":"36.069056","rubric_id":["184105398","184105406"]},{"name":"УРАЛСИБ банк Операционный офис \"Пензенский\"","address":"город Пенза, улица Коммунистическая, дом 24","country":"Россия","locality":"город Пенза","street":"улица Коммунистическая","house":"24","phones":[{"number":" +7 (800) 2505757","for_people":"для физ. лиц"},{"number":" +7 (800) 7007716","for_people":"для юр. лиц"}],"info_p":"https://www.uralsib.ru/office-atm/office/data/4561","workt":"Пн-Пт 09:00-18:00","lon":"53.207356","lat":"44.996568","rubric_id":["184105398","184105406"]},{"name":"УРАЛСИБ банк Операционный офис \"Чусовской\"","address":"город Чусовой, улица Коммунистическая, дом 12, корпус 1","country":"Россия","locality":"город Чусовой","street":"улица Коммунистическая","house":"12","phones":[{"number":" +7 (800) 2505757","for_people":"для физ. лиц"},{"number":" +7 (800) 7007716","for_people":"для юр. лиц"}],"info_p":"https://www.uralsib.ru/office-atm/office/data/4562","workt":"Пн-Пт 09:00-18:00, без перерыва","lon":"58.273022","lat":"57.802088","rubric_id":["184105398","184105406"]},{"name":"УРАЛСИБ банк Операционный офис \"Березниковский\"","address":"город Березники, улица Юбилейная, дом 17","country":"Россия","locality":"город Березники","street":"улица Юбилейная","house":"17","phones":[{"number":" +7 (800) 2505757","for_people":"для физ. лиц"},{"number":" +7 (800) 7007716","for_people":"для юр. лиц"}],"info_p":"https://www.uralsib.ru/office-atm/office/data/4563","workt":"Пн-Пт 09:00-18:00, без перерыва","lon":"59.415674","lat":"56.803063","rubric_id":["184105398","184105406"]},{"name":"УРАЛСИБ банк Операционный офис \"Петропавловский\"","address":"город Пермь, улица Ленина, дом 58","country":"Россия","locality":"город Пермь","street":"улица Ленина","house":"58","phones":[{"number":" +7 (800) 2505757","for_people":"для физ. лиц"},{"number":" +7 (800) 7007716","for_people":"для юр. лиц"}],"info_p":"https://www.uralsib.ru/office-atm/office/data/4564","workt":"Пн-Пт 09:00-20:00, без перерыва; Сб 10:00-16:00, перерыв 13:00-13:30","lon":"58.009992","lat":"56.237366","rubric_id":["184105398","184105406"]},{"name":"УРАЛСИБ банк Операционный офис \"Кунгурский\"","address":"город Кунгур, улица Гоголя, дом 18","country":"Россия","locality":"город Кунгур","street":"улица Гоголя","house":"18","phones":[{"number":" +7 (800) 2505757","for_people":"для физ. лиц"},{"number":" +7 (800) 7007716","for_people":"для юр. лиц"}],"info_p":"https://www.uralsib.ru/office-atm/office/data/4565","workt":"Пн-Пт 09:00-18:00, без перерыва; Сб 10:00-16:00, перерыв 13:00-13:30","lon":"57.42631","lat":"56.951132","rubric_id":["184105398","184105406"]},{"name":"УРАЛСИБ банк Операционный офис \"Сибирский\"","address":"город Пермь, улица Героев Хасана, дом 9А","country":"Россия","locality":"город Пермь","street":"улица Героев Хасана","house":"9","phones":[{"number":" +7 (800) 2505757","for_people":"для физ. лиц"},{"number":" +7 (800) 7007716","for_people":"для юр. лиц"}],"info_p":"https://www.uralsib.ru/office-atm/office/data/4566","workt":"Пн-Пт 09:00-18:00, без перерыва","lon":"57.994407","lat":"56.257821","rubric_id":["184105398","184105406"]},{"name":"УРАЛСИБ банк Операционный офис \"Закамский\"","address":"город Пермь, улица Маршала Рыбалко, дом 13","country":"Россия","locality":"город Пермь","street":"улица Маршала Рыбалко","house":"13","phones":[{"number":" +7 (800) 2505757","for_people":"для физ. лиц"},{"number":" +7 (800) 7007716","for_people":"для юр. лиц"}],"info_p":"https://www.uralsib.ru/office-atm/office/data/4567","workt":"Пн-Пт 09:00-18:00, без перерыва","lon":"57.999501","lat":"55.941192","rubric_id":["184105398","184105406"]},{"name":"УРАЛСИБ банк Операционный офис \"Пермский\"","address":"город Пермь, улица Пермская, дом 43","country":"Россия","locality":"город Пермь","street":"улица Пермская","house":"43","phones":[{"number":" +7 (800) 2505757","for_people":"для физ. лиц"},{"number":" +7 (800) 7007716","for_people":"для юр. лиц"}],"info_p":"https://www.uralsib.ru/office-atm/office/data/4568","workt":"Пн-Пт 09:00-18:00, без перерыва","lon":"58.012906","lat":"56.248308","rubric_id":["184105398","184105406"]},{"name":"УРАЛСИБ банк Операционный офис \"Таганрогский\"","address":"город Таганрог, улица Петровская, дом 62","country":"Россия","locality":"город Таганрог","street":"улица Петровская","house":"62","phones":[{"number":" +7 (800) 2505757","for_people":"для физ. лиц"},{"number":" +7 (800) 7007716","for_people":"для юр. лиц"}],"info_p":"https://www.uralsib.ru/office-atm/office/data/4647","workt":"Пн-Пт 09:00-17:00, перерыв 13:00-14:00","lon":"47.211698","lat":"38.935212","rubric_id":["184105398","184105406"]},{"name":"УРАЛСИБ банк Операционный офис \"Ростовский\"","address":"город Ростов-на-Дону, улица Красноармейская, дом 188","country":"Россия","locality":"город Ростов-на-Дону","street":"улица Красноармейская","house":"188","phones":[{"number":" +7 (800) 2505757","for_people":"для физ. лиц"},{"number":" +7 (800) 7007716","for_people":"для юр. лиц"}],"info_p":"https://www.uralsib.ru/office-atm/office/data/4648","workt":"Пн-Пт 09:00-18:00; Сб 10:00-16:00, перерыв 13:00-13:30","lon":"47.229171","lat":"39.720609","rubric_id":["184105398","184105406"]},{"name":"УРАЛСИБ банк Операционный офис \"Северный\"","address":"город Ростов-на-Дону, проспект Королева, дом 9в","country":"Россия","locality":"город Ростов-на-Дону","street":"проспект Королева","house":"9","phones":[{"number":" +7 (800) 2505757","for_people":"для физ. лиц"},{"number":" +7 (863) 2825024","for_people":"для юр. лиц"}],"info_p":"https://www.uralsib.ru/office-atm/office/data/4649","workt":"Пн-Пт 09:00-19:00, без перерыва","lon":"47.29568","lat":"39.703928","rubric_id":["184105398","184105406"]},{"name":"УРАЛСИБ банк Операционный офис \"Рязанский\"","address":"город Рязань, улица Соборная, дом 50","country":"Россия","locality":"город Рязань","street":"улица Соборная","house":"50","phones":[{"number":" +7 (800) 2505757","for_people":"для физ. лиц"},{"number":" +7 (800) 7007716","for_people":"для юр. лиц"}],"info_p":"https://www.uralsib.ru/office-atm/office/data/4650","workt":"Пн-Пт 09:00-19:00, без перерыва; Сб 10:00-16:00, без перерыва","lon":"54.630425","lat":"39.737336","rubric_id":["184105398","184105406"]},{"name":"УРАЛСИБ банк Операционный офис \"Самарский\"","address":"город Самара, улица Садовая, дом 247/249","country":"Россия","locality":"город Самара","street":"улица Садовая","house":"247","phones":[{"number":" +7 (800) 2505757","for_people":"для физ. лиц"},{"number":" +7 (800) 7007716","for_people":"для юр. лиц"}],"info_p":"https://www.uralsib.ru/office-atm/office/data/4651","workt":"Пн-Пт 09:00-18:00, без перерыва","lon":"53.19974","lat":"50.115501","rubric_id":["184105398","184105406"]},{"name":"УРАЛСИБ банк Операционный офис \"Кировский\"","address":"город Саратов, улица Вольская, дом 70","country":"Россия","locality":"город Саратов","street":"улица Вольская","house":"70","phones":[{"number":" +7 (800) 2505757","for_people":"для физ. лиц"},{"number":" +7 (800) 7007716","for_people":"для юр. лиц"}],"info_p":"https://www.uralsib.ru/office-atm/office/data/4652","workt":"Пн-Пт 09:00-18:00, без перерыва","lon":"51.537562","lat":"46.027914","rubric_id":["184105398","184105406"]},{"name":"УРАЛСИБ банк Операционный офис \"Вольский\"","address":"город Вольск, улица Революционная, дом 38","country":"Россия","locality":"город Вольск","street":"улица Революционная","house":"38","phones":[{"number":" +7 (800) 2505757","for_people":"для физ. лиц"},{"number":" +7 (800) 7007716","for_people":"для юр. лиц"}],"info_p":"https://www.uralsib.ru/office-atm/office/data/4653","workt":"Пн-Пт 09:00-17:00, перерыв 13:00-14:00","lon":"52.044217","lat":"47.390479","rubric_id":["184105398","184105406"]},{"name":"УРАЛСИБ банк Операционный офис \"Ленинский\"","address":"город Саратов, проспект им. 50 лет Октября, дом 110А","country":"Россия","locality":"город Саратов","street":"проспект им. 50 лет Октября","house":"110","phones":[{"number":" +7 (800) 2505757","for_people":"для физ. лиц"},{"number":" +7 (800) 7007716","for_people":"для юр. лиц"}],"info_p":"https://www.uralsib.ru/office-atm/office/data/4654","workt":"Пн-Пт 09:00-18:00, без перерыва","lon":"51.569578","lat":"45.985164","rubric_id":["184105398","184105406"]},{"name":"УРАЛСИБ банк Операционный офис \"Саратовский\"","address":"город Саратов, улица Новоузенская, дом 11/13","country":"Россия","locality":"город Саратов","street":"улица Новоузенская","house":"11","phones":[{"number":" +7 (800) 2505757","for_people":"для физ. лиц"},{"number":" +7 (800) 7007716","for_people":"для юр. лиц"}],"info_p":"https://www.uralsib.ru/office-atm/office/data/4655","workt":"Пн-Пт 09:00-19:00; Сб 10:00-16:00, перерыв 13:00-13:30","lon":"51.518982","lat":"46.009831","rubric_id":["184105398","184105406"]},{"name":"УРАЛСИБ банк Филиал, город Екатеринбург","address":"город Екатеринбург, улица Розы Люксембург, дом 15","country":"Россия","locality":"город Екатеринбург","street":"улица Розы Люксембург","house":"15","phones":[{"number":" +7 (800) 2505757","for_people":"для физ. лиц"},{"number":" +7 (800) 7007716","for_people":"для юр. лиц"}],"info_p":"https://www.uralsib.ru/office-atm/office/data/4656","workt":"Пн-Пт 09:00-19:00, без перерыва","lon":"56.832654","lat":"60.613222","rubric_id":["184105398","184105406"]},{"name":"УРАЛСИБ банк Дополнительный офис \"Отделение \"Посадское\"","address":"город Екатеринбург, улица Пальмиро Тольятти, дом 32","country":"Россия","locality":"город Екатеринбург","street":"улица Пальмиро Тольятти","house":"32","phones":[{"number":" +7 (800) 2505757","for_people":"для физ. лиц"},{"number":" +7 (800) 7007716","for_people":"для юр. лиц"}],"info_p":"https://www.uralsib.ru/office-atm/office/data/4657","workt":"Пн-Пт 09:00-19:00, без перерыва; Сб 10:00-16:00, перерыв 13:00-13:30","lon":"56.821316","lat":"60.57613","rubric_id":["184105398","184105406"]},{"name":"УРАЛСИБ банк Дополнительный офис \"Отделение \"Основинское\"","address":"город Екатеринбург, улица Уральская, дом 3","country":"Россия","locality":"город Екатеринбург","street":"улица Уральская","house":"3","phones":[{"number":" +7 (800) 2505757","for_people":"для физ. лиц"},{"number":" +7 (800) 7007716","for_people":"для юр. лиц"}],"info_p":"https://www.uralsib.ru/office-atm/office/data/4658","workt":"Пн-Пт 09:00-19:00, без перерыва; Сб 10:00-16:00, перерыв 13:00-13:30","lon":"56.862273","lat":"60.62428","rubric_id":["184105398","184105406"]},{"name":"УРАЛСИБ банк Дополнительный офис \"Южный\"","address":"город Екатеринбург, улица Уктусская, дом 47","country":"Россия","locality":"город Екатеринбург","street":"улица Уктусская","house":"47","phones":[{"number":" +7 (800) 2505757","for_people":"для физ. лиц"},{"number":" +7 (800) 7007716","for_people":"для юр. лиц"}],"info_p":"https://www.uralsib.ru/office-atm/office/data/4659","workt":"Пн-Пт 09:00-19:00","lon":"56.80894","lat":"60.604688","rubric_id":["184105398","184105406"]},{"name":"УРАЛСИБ банк Дополнительный офис \"Омега\"","address":"город Екатеринбург, улица Ильича, дом 71","country":"Россия","locality":"город Екатеринбург","street":"улица Ильича","house":"71","phones":[{"number":" +7 (800) 2505757","for_people":"для физ. лиц"},{"number":" +7 (800) 7007716","for_people":"для юр. лиц"}],"info_p":"https://www.uralsib.ru/office-atm/office/data/4660","workt":"Пн-Пт 09:00-19:00, без перерыва; Сб 10:00-16:00, перерыв 13:00-13:30","lon":"56.900442","lat":"60.611641","rubric_id":["184105398","184105406"]},{"name":"УРАЛСИБ банк Операционный офис \"Рославльский\"","address":"город Рославль, улица Советская, дом 86","country":"Россия","locality":"город Рославль","street":"улица Советская","house":"86","phones":[{"number":" +7 (800) 2505757","for_people":"для физ. лиц"},{"number":" +7 (800) 7007716","for_people":"для юр. лиц"}],"info_p":"https://www.uralsib.ru/office-atm/office/data/4661","workt":"Пн-Пт 09:00-17:00, перерыв 13:00-14:00","lon":"53.946699","lat":"32.855244","rubric_id":["184105398","184105406"]},{"name":"УРАЛСИБ банк Операционный офис \"Смоленский\"","address":"город Смоленск, улица Большая Советская, дом 4А","country":"Россия","locality":"город Смоленск","street":"улица Большая Советская","house":"4","phones":[{"number":" +7 (800) 2505757","for_people":"для физ. лиц"},{"number":" +7 (800) 7007716","for_people":"для юр. лиц"}],"info_p":"https://www.uralsib.ru/office-atm/office/data/4662","workt":"Пн-Пт 09:00-19:00, без перерыва; Сб 10:00-16:00, без перерыва","lon":"54.789234","lat":"32.04932","rubric_id":["184105398","184105406"]},{"name":"УРАЛСИБ банк Операционный офис \"Тамбовский\"","address":"город Тамбов, улица Интернациональная, дом 84","country":"Россия","locality":"город Тамбов","street":"улица Интернациональная","house":"84","phones":[{"number":" +7 (800) 2505757","for_people":"для физ. лиц"},{"number":" +7 (800) 7007716","for_people":"для юр. лиц"}],"info_p":"https://www.uralsib.ru/office-atm/office/data/4666","workt":"Пн-Пт 09:00-19:00, без перерыва; Сб 10:00-16:00, без перерыва","lon":"52.719157","lat":"41.43632","rubric_id":["184105398","184105406"]},{"name":"УРАЛСИБ банк Операционный офис \"Тверской\"","address":"город Тверь, улица Андрея Дементьева, дом 22","country":"Россия","locality":"город Тверь","street":"улица Андрея Дементьева","house":"22","phones":[{"number":" +7 (800) 2505757","for_people":"для физ. лиц"},{"number":" +7 (800) 7007716","for_people":"для юр. лиц"}],"info_p":"https://www.uralsib.ru/office-atm/office/data/4667","workt":"Пн-Пт 09:00-19:00, без перерыва","lon":"56.854798","lat":"35.916217","rubric_id":["184105398","184105406"]},{"name":"УРАЛСИБ банк Операционный офис \"Томский\"","address":"город Томск, проспект Фрунзе, дом 11а","country":"Россия","locality":"город Томск","street":"проспект Фрунзе","house":"11","phones":[{"number":" +7 (800) 2505757","for_people":"для физ. лиц"},{"number":" +7 (800) 7007716","for_people":"для юр. лиц"}],"info_p":"https://www.uralsib.ru/office-atm/office/data/4668","workt":"Пн-Пт 09:00-20:00, без перерыва; Сб 10:00-16:00, перерыв 13:00-13:30","lon":"56.475931","lat":"84.956048","rubric_id":["184105398","184105406"]},{"name":"УРАЛСИБ банк Операционный офис \"Тульский\"","address":"город Тула, улица Каминского, дом 31А","country":"Россия","locality":"город Тула","street":"улица Каминского","house":"31","phones":[{"number":" +7 (800) 2505757","for_people":"для физ. лиц"},{"number":" +7 (800) 7007716","for_people":"для юр. лиц"}],"info_p":"https://www.uralsib.ru/office-atm/office/data/4669","workt":"Пн-Пт 09:00-18:00, без перерыва","lon":"54.189292","lat":"37.610808","rubric_id":["184105398","184105406"]},{"name":"УРАЛСИБ банк Операционный офис \"Тюменский\"","address":"город Тюмень, улица Челюскинцев, дом 59А","country":"Россия","locality":"город Тюмень","street":"улица Челюскинцев","house":"59","phones":[{"number":" +7 (800) 2505757","for_people":"для физ. лиц"},{"number":" +7 (800) 7007716","for_people":"для юр. лиц"}],"info_p":"https://www.uralsib.ru/office-atm/office/data/4670","workt":"Пн-Пт 09:00-18:00, без перерыва; Сб 10:00-16:00, без перерыва","lon":"57.154713","lat":"65.53086","rubric_id":["184105398","184105406"]},{"name":"УРАЛСИБ банк Операционный офис \"Ульяновский\"","address":"город Ульяновск, улица Железной Дивизии, дом 7","country":"Россия","locality":"город Ульяновск","street":"улица Железной Дивизии","house":"7","phones":[{"number":" +7 (800) 2505757","for_people":"для физ. лиц"},{"number":" +7 (800) 7007716","for_people":"для юр. лиц"}],"info_p":"https://www.uralsib.ru/office-atm/office/data/4671","workt":"Пн-Пт 09:00-19:00, без перерыва; Сб 10:00-16:00, перерыв 13:00-13:30","lon":"54.310988","lat":"48.387358","rubric_id":["184105398","184105406"]},{"name":"УРАЛСИБ банк Операционный офис \"Потребительский\"","address":"город Челябинск, тракт Троицкий, дом 15","country":"Россия","locality":"город Челябинск","street":"тракт Троицкий","house":"15","phones":[{"number":" +7 (800) 2505757","for_people":"для физ. лиц"},{"number":" +7 (800) 7007716","for_people":"для юр. лиц"}],"info_p":"https://www.uralsib.ru/office-atm/office/data/4675","workt":"Пн-Пт 09:00-17:00, перерыв 13:00-14:00","lon":"55.104213","lat":"61.385593","rubric_id":["184105398","184105406"]},{"name":"УРАЛСИБ банк Операционный офис \"Златоустовский\"","address":"город Златоуст, улица Таганайская, дом 204","country":"Россия","locality":"город Златоуст","street":"улица Таганайская","house":"204","phones":[{"number":" +7 (800) 2505757","for_people":"для физ. лиц"},{"number":" +7 (800) 7007716","for_people":"для юр. лиц"}],"info_p":"https://www.uralsib.ru/office-atm/office/data/4676","workt":"Пн-Пт 09:00-18:00, без перерыва","lon":"55.148292","lat":"59.667871","rubric_id":["184105398","184105406"]},{"name":"УРАЛСИБ банк Операционный офис \"Миасский\"","address":"город Миасс, проспект Автозаводцев, дом 39","country":"Россия","locality":"город Миасс","street":"проспект Автозаводцев","house":"39","phones":[{"number":" +7 (800) 2505757","for_people":"для физ. лиц"},{"number":" +7 (800) 7007716","for_people":"для юр. лиц"}],"info_p":"https://www.uralsib.ru/office-atm/office/data/4677","workt":"Пн-Пт 09:00-18:00, без перерыва","lon":"55.053784","lat":"60.108072","rubric_id":["184105398","184105406"]},{"name":"УРАЛСИБ банк Операционный офис \"Челябинский\"","address":"город Челябинск, проспект Ленина, дом 42","country":"Россия","locality":"город Челябинск","street":"проспект Ленина","house":"42","phones":[{"number":" +7 (800) 2505757","for_people":"для физ. лиц"},{"number":" +7 (800) 7007716","for_people":"для юр. лиц"}],"info_p":"https://www.uralsib.ru/office-atm/office/data/4678","workt":"Пн-Пт 09:00-19:00, без перерыва; Сб 10:00-16:00, перерыв 13:00-13:30","lon":"55.161373","lat":"61.41425","rubric_id":["184105398","184105406"]},{"name":"УРАЛСИБ банк Операционный офис \"Курчатовский\"","address":"город Челябинск, улица 40 лет Победы, дом 33","country":"Россия","locality":"город Челябинск","street":"улица 40 лет Победы","house":"33","phones":[{"number":" +7 (800) 2505757","for_people":"для физ. лиц"},{"number":" +7 (800) 7007716","for_people":"для юр. лиц"}],"info_p":"https://www.uralsib.ru/office-atm/office/data/4679","workt":"Пн-Пт 09:00-18:00, перерыв 13:00-14:00","lon":"55.182824","lat":"61.304062","rubric_id":["184105398","184105406"]},{"name":"УРАЛСИБ банк Операционный офис \"Магнитогорский\"","address":"город Магнитогорск, проспект Ленина, дом 130","country":"Россия","locality":"город Магнитогорск","street":"проспект Ленина","house":"130","phones":[{"number":" +7 (800) 2505757","for_people":"для физ. лиц"},{"number":" +7 (800) 7007716","for_people":"для юр. лиц"}],"info_p":"https://www.uralsib.ru/office-atm/office/data/4680","workt":"Пн-Пт 09:00-18:00, без перерыва; Сб 10:00-16:00, перерыв 13:00-13:30","lon":"53.380524","lat":"58.988601","rubric_id":["184105398","184105406"]},{"name":"УРАЛСИБ банк Операционный офис \"Ярославский\"","address":"город Ярославль, улица Свободы, дом 54/38","country":"Россия","locality":"город Ярославль","street":"улица Свободы","house":"54","phones":[{"number":" +7 (800) 2505757","for_people":"для физ. лиц"},{"number":" +7 (800) 7007716","for_people":"для юр. лиц"}],"info_p":"https://www.uralsib.ru/office-atm/office/data/4682","workt":"Пн-Пт 09:00-18:00","lon":"57.626766","lat":"39.859103","rubric_id":["184105398","184105406"]},{"name":"УРАЛСИБ банк Дополнительный офис (отделение) \"Автозаводское\"","address":"город Москва, улица Автозаводская, дом 11","country":"Россия","locality":"город Москва","street":"улица Автозаводская","house":"11","phones":[{"number":" +7 (495) 7237777","for_people":"для физ. лиц"},{"number":" +7 (495) 7237700","for_people":"для юр. лиц"}],"info_p":"https://www.uralsib.ru/office-atm/office/data/4422","workt":"Пн-Пт 09:00-20:00, без перерыва","lon":"55.706447","lat":"37.65752","rubric_id":["184105398","184105406"]},{"name":"УРАЛСИБ банк Дополнительный офис (отделение) \"Бакунинское\"","address":"город Москва, улица Бакунинская, дом 50, строение 1","country":"Россия","locality":"город Москва","street":"улица Бакунинская","house":"50","phones":[{"number":" +7 (495) 7237777","for_people":"для физ. лиц"},{"number":" +7 (495) 7237700","for_people":"для юр. лиц"}],"info_p":"https://www.uralsib.ru/office-atm/office/data/4423","workt":"Пн-Пт 09:00-19:00, без перерыва","lon":"55.776715","lat":"37.688135","rubric_id":["184105398","184105406"]},{"name":"УРАЛСИБ банк Дополнительный офис (отделение) \"Белорусское\"","address":"город Москва, улица Лесная, дом 43","country":"Россия","locality":"город Москва","street":"улица Лесная","house":"43","phones":[{"number":" +7 (495) 7237777","for_people":"для физ. лиц"},{"number":" +7 (495) 7237700","for_people":"для юр. лиц"}],"info_p":"https://www.uralsib.ru/office-atm/office/data/4424","workt":"Пн-Пт 09:00-20:00, без перерыва","lon":"55.780583","lat":"37.590677","rubric_id":["184105398","184105406"]},{"name":"УРАЛСИБ банк Дополнительный офис (отделение) \"Красные Ворота\"","address":"город Москва, улица Садовая-Черногрязская, дом 13/3, строение 1","country":"Россия","locality":"город Москва","street":"улица Садовая-Черногрязская","house":"13","phones":[{"number":" +7 (495) 7237777","for_people":"для физ. лиц"},{"number":" +7 (495) 7237700","for_people":"для юр. лиц"}],"info_p":"https://www.uralsib.ru/office-atm/office/data/4425","workt":"Пн-Пт 09:00-19:00, без перерыва","lon":"55.76525","lat":"37.656442","rubric_id":["184105398","184105406"]},{"name":"УРАЛСИБ банк Дополнительный офис (отделение) \"Кутузовское\"","address":"город Москва, проспект Кутузовский, дом 27","country":"Россия","locality":"город Москва","street":"проспект Кутузовский","house":"27","phones":[{"number":" +7 (495) 7237777","for_people":"для физ. лиц"},{"number":" +7 (495) 7237700","for_people":"для юр. лиц"}],"info_p":"https://www.uralsib.ru/office-atm/office/data/4426","workt":"Пн-Пт 09:00-20:00, без перерыва","lon":"55.743598","lat":"37.545653","rubric_id":["184105398","184105406"]},{"name":"УРАЛСИБ банк Дополнительный офис (отделение) \"Ленинградский проспект\"","address":"город Москва, проспект Ленинградский, дом 33А","country":"Россия","locality":"город Москва","street":"проспект Ленинградский","house":"33","phones":[{"number":" +7 (495) 7237777","for_people":"для физ. лиц"},{"number":" +7 (495) 7237700","for_people":"для юр. лиц"}],"info_p":"https://www.uralsib.ru/office-atm/office/data/4427","workt":"Пн-Пт 09:00-20:00, без перерыва","lon":"55.788469","lat":"37.557565","rubric_id":["184105398","184105406"]},{"name":"УРАЛСИБ банк Дополнительный офис (отделение) \"Ленинский проспект\"","address":"город Москва, проспект Ленинский, дом 72/2","country":"Россия","locality":"город Москва","street":"проспект Ленинский","house":"72","phones":[{"number":" +7 (495) 7237777","for_people":"для физ. лиц"},{"number":" +7 (495) 7237700","for_people":"для юр. лиц"}],"info_p":"https://www.uralsib.ru/office-atm/office/data/4428","workt":"Пн-Пт 09:00-20:00, без перерыва; Сб 10:00-16:00, перерыв 13:00-13:30","lon":"55.685726","lat":"37.540569","rubric_id":["184105398","184105406"]},{"name":"УРАЛСИБ банк Дополнительный офис (отделение) \"Марьино\"","address":"город Москва, улица Люблинская, дом 175","country":"Россия","locality":"город Москва","street":"улица Люблинская","house":"175","phones":[{"number":" +7 (495) 7237777","for_people":"для физ. лиц"},{"number":" +7 (495) 7237700","for_people":"для юр. лиц"}],"info_p":"https://www.uralsib.ru/office-atm/office/data/4429","workt":"Пн-Пт 09:00-20:00, без перерыва; Сб 10:00-16:00, перерыв 13:00-13:30","lon":"55.645878","lat":"37.747379","rubric_id":["184105398","184105406"]},{"name":"УРАЛСИБ банк Дополнительный офис (отделение) \"Митинское\"","address":"город Москва, улица Митинская, дом 36","country":"Россия","locality":"город Москва","street":"улица Митинская","house":"36","phones":[{"number":" +7 (495) 7237777","for_people":"для физ. лиц"},{"number":" +7 (495) 7237700","for_people":"для юр. лиц"}],"info_p":"https://www.uralsib.ru/office-atm/office/data/4430","workt":"Пн-Пт 09:00-20:00; Сб 10:00-16:00, перерыв 13:00-13:30","lon":"55.846118","lat":"37.363376","rubric_id":["184105398","184105406"]},{"name":"УРАЛСИБ банк Дополнительный офис (отделение) \"Новинское\"","address":"город Москва, бульвар Новинский, дом 12, строение 1","country":"Россия","locality":"город Москва","street":"бульвар Новинский","house":"12","phones":[{"number":" +7 (495) 7237777","for_people":"для физ. лиц"},{"number":" +7 (495) 7237700","for_people":"для юр. лиц"}],"info_p":"https://www.uralsib.ru/office-atm/office/data/4431","workt":"Пн-Пт 09:00-19:00, без перерыва","lon":"55.753463","lat":"37.58473","rubric_id":["184105398","184105406"]},{"name":"УРАЛСИБ банк Дополнительный офис (отделение) \"Парк Победы\"","address":"город Москва, площадь Победы, дом 2, корпус 1","country":"Россия","locality":"город Москва","street":"площадь Победы","house":"2","phones":[{"number":" +7 (495) 7237777","for_people":"для физ. лиц"},{"number":" +7 (495) 7237700","for_people":"для юр. лиц"}],"info_p":"https://www.uralsib.ru/office-atm/office/data/4432","workt":"Пн-Пт 09:00-19:00, без перерыва","lon":"55.737684","lat":"37.521156","rubric_id":["184105398","184105406"]},{"name":"УРАЛСИБ банк Дополнительный офис (отделение) \"Покровское\"","address":"город Москва, бульвар Чистопрудный, дом 13, строение 1","country":"Россия","locality":"город Москва","street":"бульвар Чистопрудный","house":"13","phones":[{"number":" +7 (495) 7237777","for_people":"для физ. лиц"},{"number":" +7 (495) 7237700","for_people":"для юр. лиц"}],"info_p":"https://www.uralsib.ru/office-atm/office/data/4433","workt":"Пн-Пт 09:00-19:00, без перерыва","lon":"55.762318","lat":"37.644639","rubric_id":["184105398","184105406"]},{"name":"УРАЛСИБ банк Дополнительный офис (отделение) \"Северное\"","address":"город Москва, улица Академика Королева, дом 3","country":"Россия","locality":"город Москва","street":"улица Академика Королева","house":"3","phones":[{"number":" +7 (495) 7237777","for_people":"для физ. лиц"},{"number":" +7 (495) 7237700","for_people":"для юр. лиц"}],"info_p":"https://www.uralsib.ru/office-atm/office/data/4434","workt":"Пн-Пт 09:00-20:00, без перерыва; Сб 10:00-16:00, перерыв 13:00-13:30","lon":"55.820855","lat":"37.632772","rubric_id":["184105398","184105406"]},{"name":"УРАЛСИБ банк Дополнительный офис (отделение) \"Серпуховское\"","address":"город Москва, улица Большая Серпуховская, дом 31, корпус 1","country":"Россия","locality":"город Москва","street":"улица Большая Серпуховская","house":"31","phones":[{"number":" +7 (495) 7237777","for_people":"для физ. лиц"},{"number":" +7 (495) 7237700","for_people":"для юр. лиц"}],"info_p":"https://www.uralsib.ru/office-atm/office/data/4435","workt":"Пн-Пт 09:00-19:00, без перерыва","lon":"55.722117","lat":"37.627867","rubric_id":["184105398","184105406"]},{"name":"УРАЛСИБ банк Дополнительный офис (отделение) \"Сокольники\"","address":"город Москва, улица Русаковская, дом 28, строение 1б","country":"Россия","locality":"город Москва","street":"улица Русаковская","house":"28","phones":[{"number":" +7 (495) 7237777","for_people":"для физ. лиц"},{"number":" +7 (495) 7237700","for_people":"для юр. лиц"}],"info_p":"https://www.uralsib.ru/office-atm/office/data/4436","workt":"Пн-Пт 09:00-20:00, без перерыва; Сб 10:00-16:00, перерыв 13:00-13:30","lon":"55.788201","lat":"37.681649","rubric_id":["184105398","184105406"]},{"name":"УРАЛСИБ банк Дополнительный офис (отделение) \"Таганское\"","address":"город Москва, улица Марксистская, дом 1, корпус 1","country":"Россия","locality":"город Москва","street":"улица Марксистская","house":"1","phones":[{"number":" +7 (495) 7237777","for_people":"для физ. лиц"},{"number":" +7 (495) 7237700","for_people":"для юр. лиц"}],"info_p":"https://www.uralsib.ru/office-atm/office/data/4437","workt":"Пн-Пт 09:00-20:00, без перерыва","lon":"55.740289","lat":"37.658796","rubric_id":["184105398","184105406"]},{"name":"УРАЛСИБ банк Дополнительный офис \"Бизнес-центр Фрунзенский\"","address":"город Москва, улица Ефремова, дом 8","country":"Россия","locality":"город Москва","street":"улица Ефремова","house":"8","phones":[{"number":" +7 (495) 7237777","for_people":"для физ. лиц"},{"number":" +7 (495) 7237700","for_people":"для юр. лиц"}],"info_p":"https://www.uralsib.ru/office-atm/office/data/4438","workt":"Пн-Пт 09:00-20:00, без перерыва; Сб 10:00-16:00, перерыв 13:00-13:30","lon":"55.726208","lat":"37.576762","rubric_id":["184105398","184105406"]},{"name":"УРАЛСИБ банк Дополнительный офис (отделение) \"Химкинское\"","address":"город Химки, улица Маяковского, дом 23","country":"Россия","locality":"город Химки","street":"улица Маяковского","house":"23","phones":[{"number":" +7 (800) 2505757","for_people":"для физ. лиц"},{"number":" +7 (495) 7237700","for_people":"для юр. лиц"}],"info_p":"https://www.uralsib.ru/office-atm/office/data/4439","workt":"Пн-Пт 09:00-20:00, без перерыва; Сб 10:00-16:00, перерыв 13:00-13:30","lon":"55.891572","lat":"37.43852","rubric_id":["184105398","184105406"]},{"name":"УРАЛСИБ банк Дополнительный офис (отделение) \"Черемушки\"","address":"город Москва, улица Профсоюзная, дом 56","country":"Россия","locality":"город Москва","street":"улица Профсоюзная","house":"56","phones":[{"number":" +7 (495) 7237777","for_people":"для физ. лиц"},{"number":" +7 (495) 7237700","for_people":"для юр. лиц"}],"info_p":"https://www.uralsib.ru/office-atm/office/data/4440","workt":"Пн-Пт 09:00-20:00, без перерыва; Сб 10:00-16:00, перерыв 13:00-13:30","lon":"55.670021","lat":"37.55248","rubric_id":["184105398","184105406"]},{"name":"УРАЛСИБ банк Дополнительный офис (отделение) \"Бутово\"","address":"город Москва, бульвар Дмитрия Донского, дом 1","country":"Россия","locality":"город Москва","street":"бульвар Дмитрия Донского","house":"1","phones":[{"number":" +7 (495) 7237777","for_people":"для физ. лиц"},{"number":" +7 (495) 7237700","for_people":"для юр. лиц"}],"info_p":"https://www.uralsib.ru/office-atm/office/data/4441","workt":"Пн-Пт 09:00-20:00; Сб 10:00-16:00, перерыв 13:00-13:30","lon":"55.574874","lat":"37.580104","rubric_id":["184105398","184105406"]},{"name":"УРАЛСИБ банк Дополнительный офис (отделение) \"Перово\"","address":"город Москва, улица Электродная, дом 9, строение 1","country":"Россия","locality":"город Москва","street":"улица Электродная","house":"9","phones":[{"number":" +7 (495) 7237777","for_people":"для физ. лиц"},{"number":" +7 (495) 7237700","for_people":"для юр. лиц"}],"info_p":"https://www.uralsib.ru/office-atm/office/data/4442","workt":"Пн-Пт 09:00-19:00, без перерыва","lon":"55.750981","lat":"37.755356","rubric_id":["184105398","184105406"]},{"name":"УРАЛСИБ банк Дополнительный офис \"Серебряный Бор\"","address":"город Москва, проспект Маршала Жукова, дом 58, корпус 1","country":"Россия","locality":"город Москва","street":"проспект Маршала Жукова","house":"58","phones":[{"number":" +7 (495) 7237777","for_people":"для физ. лиц"},{"number":" +7 (495) 7237700","for_people":"для юр. лиц"}],"info_p":"https://www.uralsib.ru/office-atm/office/data/4443","workt":"Пн-Пт 09:00-19:00, без перерыва; Сб 10:00-16:00, перерыв 13:00-13:30","lon":"55.778264","lat":"37.462981","rubric_id":["184105398","184105406"]},{"name":"УРАЛСИБ банк Дополнительный офис \"Варшавский\"","address":"город Москва, шоссе Варшавское, дом 82","country":"Россия","locality":"город Москва","street":"шоссе Варшавское","house":"82","phones":[{"number":" +7 (495) 7237777","for_people":"для физ. лиц"},{"number":" +7 (495) 7237700","for_people":"для юр. лиц"}],"info_p":"https://www.uralsib.ru/office-atm/office/data/4444","workt":"Пн-Пт 09:00-19:00, без перерыва","lon":"55.651775","lat":"37.618758","rubric_id":["184105398","184105406"]},{"name":"УРАЛСИБ банк Дополнительный офис \"Измайлово\"","address":"город Москва, бульвар Измайловский, дом 55","country":"Россия","locality":"город Москва","street":"бульвар Измайловский","house":"55","phones":[{"number":" +7 (495) 7237777","for_people":"для физ. лиц"},{"number":" +7 (495) 7237700","for_people":"для юр. лиц"}],"info_p":"https://www.uralsib.ru/office-atm/office/data/4445","workt":"Пн-Пт 09:00-20:00; Сб 10:00-16:00, перерыв 13:00-13:30","lon":"55.797306","lat":"37.803236","rubric_id":["184105398","184105406"]},{"name":"УРАЛСИБ банк Дополнительный офис \"Кузьминки\"","address":"город Москва, улица Зеленодольская, дом 36, корпус 1","country":"Россия","locality":"город Москва","street":"улица Зеленодольская","house":"36","phones":[{"number":" +7 (495) 7237777","for_people":"для физ. лиц"},{"number":" +7 (495) 7237700","for_people":"для юр. лиц"}],"info_p":"https://www.uralsib.ru/office-atm/office/data/4446","workt":"Пн-Пт 09:00-20:00, без перерыва; Сб 10:00-16:00, перерыв 13:00-13:30","lon":"55.709789","lat":"37.767259","rubric_id":["184105398","184105406"]},{"name":"УРАЛСИБ банк Дополнительный офис \"Дмитровский\"","address":"город Москва, улица Лобненская, дом 4А","country":"Россия","locality":"город Москва","street":"улица Лобненская","house":"4","phones":[{"number":" +7 (495) 7237777","for_people":"для физ. лиц"},{"number":" +7 (495) 7237700","for_people":"для юр. лиц"}],"info_p":"https://www.uralsib.ru/office-atm/office/data/4447","workt":"Пн-Пт 09:00-19:00, без перерыва; Сб 10:00-16:00, перерыв 13:00-13:30","lon":"55.889881","lat":"37.537676","rubric_id":["184105398","184105406"]},{"name":"УРАЛСИБ банк Дополнительный офис \"Проспект Вернадского\"","address":"город Москва, улица Удальцова, дом 65","country":"Россия","locality":"город Москва","street":"улица Удальцова","house":"65","phones":[{"number":" +7 (495) 7237777","for_people":"для физ. лиц"},{"number":" +7 (495) 7237700","for_people":"для юр. лиц"}],"info_p":"https://www.uralsib.ru/office-atm/office/data/4448","workt":"Пн-Пт 09:00-19:00, без перерыва","lon":"55.678961","lat":"37.500621","rubric_id":["184105398","184105406"]},{"name":"УРАЛСИБ банк Дополнительный офис \"Маяковский\"","address":"город Москва, улица 2-я Тверская-Ямская, дом 14","country":"Россия","locality":"город Москва","street":"улица 2-я Тверская-Ямская","house":"14","phones":[{"number":" +7 (495) 7237777","for_people":"для физ. лиц"},{"number":" +7 (495) 7237700","for_people":"для юр. лиц"}],"info_p":"https://www.uralsib.ru/office-atm/office/data/4449","workt":"Пн-Пт 09:00-19:00, без перерыва","lon":"55.771525","lat":"37.595258","rubric_id":["184105398","184105406"]},{"name":"УРАЛСИБ банк Дополнительный офис \"Проспект Мира\"","address":"город Москва, проспект Мира, дом 26, строение 1","country":"Россия","locality":"город Москва","street":"проспект Мира","house":"26","phones":[{"number":" +7 (495) 7237777","for_people":"для физ. лиц"},{"number":" +7 (495) 7237700","for_people":"для юр. лиц"}],"info_p":"https://www.uralsib.ru/office-atm/office/data/4450","workt":"Пн-Пт 09:00-19:00, без перерыва","lon":"55.77796","lat":"37.633068","rubric_id":["184105398","184105406"]},{"name":"УРАЛСИБ банк Дополнительный офис \"Царицыно\"","address":"город Москва, улица Кантемировская, дом 47","country":"Россия","locality":"город Москва","street":"улица Кантемировская","house":"47","phones":[{"number":" +7 (495) 7237777","for_people":"для физ. лиц"},{"number":" +7 (495) 7237700","for_people":"для юр. лиц"}],"info_p":"https://www.uralsib.ru/office-atm/office/data/4451","workt":"Пн-Пт 09:00-20:00, без перерыва","lon":"55.637794","lat":"37.656173","rubric_id":["184105398","184105406"]},{"name":"УРАЛСИБ банк Дополнительный офис Центр ипотечного кредитования \"Москва-Сити\"","address":"город Москва, проезд 1-й Красногвардейский, дом 15","country":"Россия","locality":"город Москва","street":"проезд 1-й Красногвардейский","house":"15","phones":[{"number":" +7 (495) 7237777","for_people":"для физ. лиц"},{"number":" +7 (495) 7237700","for_people":"для юр. лиц"}],"info_p":"https://www.uralsib.ru/office-atm/office/data/4453","workt":"Пн-Пт 09:00-20:00, без перерыва","lon":"55.75052","lat":"37.539401","rubric_id":["184105398","184105406"]},{"name":"УРАЛСИБ банк Дополнительный офис Центр ипотечного кредитования \"Павелецкий\"","address":"город Москва, набережная Космодамианская, дом 52, строение 5","country":"Россия","locality":"город Москва","street":"набережная Космодамианская","house":"52","phones":[{"number":" +7 (495) 7237777","for_people":"для физ. лиц"},{"number":" +7 (495) 7237700","for_people":"для юр. лиц"}],"info_p":"https://www.uralsib.ru/office-atm/office/data/4454","workt":"Пн-Пт 09:00-20:00, без перерыва; Сб 10:00-16:00, перерыв 13:00-13:30","lon":"55.732945","lat":"37.643929","rubric_id":["184105398","184105406"]},{"name":"УРАЛСИБ банк Дополнительный офис \"Сходненский\"","address":"город Москва, бульвар Химкинский, дом 21","country":"Россия","locality":"город Москва","street":"бульвар Химкинский","house":"21","phones":[{"number":" +7 (495) 7237777","for_people":"для физ. лиц"}],"info_p":"https://www.uralsib.ru/office-atm/office/data/4455","workt":"Пн-Пт 09:00-19:00, без перерыва","lon":"55.849388","lat":"37.443111","rubric_id":["184105398","184105406"]},{"name":"УРАЛСИБ банк Филиал в г. Санкт-Петербург","address":"город Санкт-Петербург, улица Инженерная, дом 9","country":"Россия","locality":"город Санкт-Петербург","street":"улица Инженерная","house":"9","phones":[{"number":" +7 (800) 2505757","for_people":"для физ. лиц"},{"number":" +7 (800) 7007716","for_people":"для юр. лиц"}],"info_p":"https://www.uralsib.ru/office-atm/office/data/4456","workt":"Пн-Пт 09:00-20:00, без перерыва; Сб 10:00-16:00, перерыв 13:00-13:30","lon":"59.93754","lat":"30.338128","rubric_id":["184105398","184105406"]},{"name":"УРАЛСИБ банк Дополнительный офис \"Отделение \"Нарвское\"","address":"город Санкт-Петербург, улица Оборонная, дом 25","country":"Россия","locality":"город Санкт-Петербург","street":"улица Оборонная","house":"25","phones":[{"number":" +7 (800) 2505757","for_people":"для физ. лиц"},{"number":" +7 (800) 7007716","for_people":"для юр. лиц"}],"info_p":"https://www.uralsib.ru/office-atm/office/data/4457","workt":"Пн-Пт 09:00-18:00, без перерыва","lon":"59.893805","lat":"30.262814","rubric_id":["184105398","184105406"]},{"name":"УРАЛСИБ банк Дополнительный офис \"Отделение \"Промышленное\"","address":"город Санкт-Петербург, проспект Пискаревский, дом 39А","country":"Россия","locality":"город Санкт-Петербург","street":"проспект Пискаревский","house":"39","phones":[{"number":" +7 (800) 2505757","for_people":"для физ. лиц"},{"number":" +7 (800) 7007716","for_people":"для юр. лиц"}],"info_p":"https://www.uralsib.ru/office-atm/office/data/4458","workt":"Пн-Пт 09:00-18:00, без перерыва","lon":"59.97848","lat":"30.420836","rubric_id":["184105398","184105406"]},{"name":"УРАЛСИБ банк Дополнительный офис \"Отделение \"Выборгское\"","address":"город Санкт-Петербург, проспект Энгельса, дом 111А, корпус 1","country":"Россия","locality":"город Санкт-Петербург","street":"проспект Энгельса","house":"111","phones":[{"number":" +7 (800) 2505757","for_people":"для физ. лиц"},{"number":" +7 (800) 7007716","for_people":"для юр. лиц"}],"info_p":"https://www.uralsib.ru/office-atm/office/data/4459","workt":"Пн-Пт 09:00-20:00, без перерыва","lon":"60.036811","lat":"30.32433","rubric_id":["184105398","184105406"]},{"name":"УРАЛСИБ банк Дополнительный офис \"Комендантский\"","address":"город Санкт-Петербург, проспект Комендантский, дом 17А, корпус 1","country":"Россия","locality":"город Санкт-Петербург","street":"проспект Комендантский","house":"17","phones":[{"number":" +7 (800) 2505757","for_people":"для физ. лиц"},{"number":" +7 (800) 7007716","for_people":"для юр. лиц"}],"info_p":"https://www.uralsib.ru/office-atm/office/data/4460","workt":"Пн-Пт 09:00-20:00, без перерыва","lon":"60.012539","lat":"30.255591","rubric_id":["184105398","184105406"]},{"name":"УРАЛСИБ банк Дополнительный офис \"Отделение \"Юбилейное\"","address":"город Санкт-Петербург, улица Савушкина, дом 13А","country":"Россия","locality":"город Санкт-Петербург","street":"улица Савушкина","house":"13","phones":[{"number":" +7 (800) 2505757","for_people":"для физ. лиц"},{"number":" +7 (800) 7007716","for_people":"для юр. лиц"}],"info_p":"https://www.uralsib.ru/office-atm/office/data/4461","workt":"Пн-Пт 09:00-18:00, без перерыва","lon":"59.986092","lat":"30.293401","rubric_id":["184105398","184105406"]},{"name":"УРАЛСИБ банк Дополнительный офис Отделение \"Таллинское\"","address":"город Санкт-Петербург, проспект Ветеранов, дом 76А","country":"Россия","locality":"город Санкт-Петербург","street":"проспект Ветеранов","house":"76","phones":[{"number":" +7 (800) 2505757","for_people":"для физ. лиц"},{"number":" +7 (800) 7007716","for_people":"для юр. лиц"}],"info_p":"https://www.uralsib.ru/office-atm/office/data/4462","workt":"Пн-Пт 09:00-20:00, без перерыва","lon":"59.833904","lat":"30.220934","rubric_id":["184105398","184105406"]},{"name":"УРАЛСИБ банк Дополнительный офис \"Отделение \"Прибалтийское\"","address":"город Санкт-Петербург, улица Нахимова, дом 11А","country":"Россия","locality":"город Санкт-Петербург","street":"улица Нахимова","house":"11","phones":[{"number":" +7 (800) 2505757","for_people":"для физ. лиц"},{"number":" +7 (800) 7007716","for_people":"для юр. лиц"}],"info_p":"https://www.uralsib.ru/office-atm/office/data/4463","workt":"Пн-Пт 09:00-18:00, без перерыва","lon":"59.941042","lat":"30.222102","rubric_id":["184105398","184105406"]},{"name":"УРАЛСИБ банк Дополнительный офис \"Отделение \"Купчинское\"","address":"город Санкт-Петербург, улица Будапештская, дом 71, корпус 1А","country":"Россия","locality":"город Санкт-Петербург","street":"улица Будапештская","house":"71","phones":[{"number":" +7 (800) 2505757","for_people":"для физ. лиц"},{"number":" +7 (800) 7007716","for_people":"для юр. лиц"}],"info_p":"https://www.uralsib.ru/office-atm/office/data/4464","workt":"Пн-Пт 09:00-18:00, без перерыва","lon":"59.845356","lat":"30.389027","rubric_id":["184105398","184105406"]},{"name":"УРАЛСИБ банк Дополнительный офис \"Отделение \"Московское\"","address":"город Санкт-Петербург, проспект Московский, дом 139, корпус 2А","country":"Россия","locality":"город Санкт-Петербург","street":"проспект Московский","house":"139","phones":[{"number":" +7 (800) 2505757","for_people":"для физ. лиц"},{"number":" +7 (800) 7007716","for_people":"для юр. лиц"}],"info_p":"https://www.uralsib.ru/office-atm/office/data/4465","workt":"Пн-Пт 09:00-20:00, без перерыва","lon":"59.879534","lat":"30.317171","rubric_id":["184105398","184105406"]},{"name":"УРАЛСИБ банк Дополнительный офис \"Отделение \"Невское\"","address":"город Санкт-Петербург, улица Ивановская, дом 26А","country":"Россия","locality":"город Санкт-Петербург","street":"улица Ивановская","house":"26","phones":[{"number":" +7 (800) 2505757","for_people":"для физ. лиц"},{"number":" +7 (800) 7007716","for_people":"для юр. лиц"}],"info_p":"https://www.uralsib.ru/office-atm/office/data/4466","workt":"Пн-Пт 09:00-20:00, без перерыва","lon":"59.873324","lat":"30.43847","rubric_id":["184105398","184105406"]},{"name":"УРАЛСИБ банк Дополнительный офис \"Отделение \"Приморское\"","address":"город Санкт-Петербург, проспект Коломяжский, дом 20А","country":"Россия","locality":"город Санкт-Петербург","street":"проспект Коломяжский","house":"20","phones":[{"number":" +7 (800) 2505757","for_people":"для физ. лиц"},{"number":" +7 (800) 7007716","for_people":"для юр. лиц"}],"info_p":"https://www.uralsib.ru/office-atm/office/data/4467","workt":"Пн-Пт 09:00-20:00, без перерыва","lon":"59.998774","lat":"30.298315","rubric_id":["184105398","184105406"]},{"name":"УРАЛСИБ банк Дополнительный офис \"Отделение \"Колпинское\"","address":"город Колпино, улица Пролетарская, дом 9/28А","country":"Россия","locality":"город Колпино","street":"улица Пролетарская","house":"9","phones":[{"number":" +7 (800) 2505757","for_people":"для физ. лиц"},{"number":" +7 (800) 7007716","for_people":"для юр. лиц"}],"info_p":"https://www.uralsib.ru/office-atm/office/data/4468","workt":"Пн-Пт 09:00-20:00, без перерыва","lon":"59.741246","lat":"30.588112","rubric_id":["184105398","184105406"]},{"name":"УРАЛСИБ банк Дополнительный офис \"Отделение \"Охтинское\"","address":"город Санкт-Петербург, проспект Энтузиастов, дом 20А, корпус 1","country":"Россия","locality":"город Санкт-Петербург","street":"проспект Энтузиастов","house":"20","phones":[{"number":" +7 (800) 2505757","for_people":"для физ. лиц"},{"number":" +7 (800) 7007716","for_people":"для юр. лиц"}],"info_p":"https://www.uralsib.ru/office-atm/office/data/4469","workt":"Пн-Пт 09:00-18:00, без перерыва","lon":"59.946216","lat":"30.468312","rubric_id":["184105398","184105406"]},{"name":"УРАЛСИБ банк Дополнительный офис \"Отделение \"Правобережное\"","address":"город Санкт-Петербург, проспект Искровский, дом 22А","country":"Россия","locality":"город Санкт-Петербург","street":"проспект Искровский","house":"22","phones":[{"number":" +7 (800) 2505757","for_people":"для физ. лиц"},{"number":" +7 (800) 7007716","for_people":"для юр. лиц"}],"info_p":"https://www.uralsib.ru/office-atm/office/data/4470","workt":"Пн-Пт 09:00-18:00, без перерыва","lon":"59.905619","lat":"30.468959","rubric_id":["184105398","184105406"]},{"name":"УРАЛСИБ банк Дополнительный офис \"Центр ипотечного кредитования\"","address":"город Санкт-Петербург, улица Восстания, дом 8А","country":"Россия","locality":"город Санкт-Петербург","street":"улица Восстания","house":"8","phones":[{"number":" +7 (800) 2505757","for_people":"для физ. лиц"}],"info_p":"https://www.uralsib.ru/office-atm/office/data/4471","workt":"Пн-Пт 09:30-18:00, без перерыва","lon":"59.935065","lat":"30.359895","rubric_id":["184105398","184105406"]},{"name":"УРАЛСИБ банк Дополнительный офис \"Улица Восстания, 25\"","address":"город Санкт-Петербург, улица Восстания, дом 25А","country":"Россия","locality":"город Санкт-Петербург","street":"улица Восстания","house":"25","phones":[{"number":" +7 (800) 2505757","for_people":"для физ. лиц"},{"number":" +7 (800) 7007716","for_people":"для юр. лиц"}],"info_p":"https://www.uralsib.ru/office-atm/office/data/4472","workt":"Пн-Пт 09:00-19:30, без перерыва","lon":"59.936832","lat":"30.360712","rubric_id":["184105398","184105406"]},{"name":"УРАЛСИБ банк Дополнительный офис \"Петроградский\"","address":"город Санкт-Петербург, набережная Петроградская, дом 36А","country":"Россия","locality":"город Санкт-Петербург","street":"набережная Петроградская","house":"36","phones":[{"number":" +7 (800) 2505757","for_people":"для физ. лиц"},{"number":" +7 (800) 7007716","for_people":"для юр. лиц"}],"info_p":"https://www.uralsib.ru/office-atm/office/data/4473","workt":"Пн-Пт 09:00-17:30, без перерыва","lon":"59.962994","lat":"30.334176","rubric_id":["184105398","184105406"]},{"name":"УРАЛСИБ банк Дополнительный офис \"Звездный\"","address":"город Санкт-Петербург, улица Ленсовета, дом 88А","country":"Россия","locality":"город Санкт-Петербург","street":"улица Ленсовета","house":"88","phones":[{"number":" +7 (800) 2505757","for_people":"для физ. лиц"}],"info_p":"https://www.uralsib.ru/office-atm/office/data/4474","workt":"Пн-Пт 09:00-20:00, без перерыва","lon":"59.832683","lat":"30.350561","rubric_id":["184105398","184105406"]},{"name":"УРАЛСИБ банк Операционный офис \"Мегион\"","address":"город Мегион, улица Строителей, дом 2/6","country":"Россия","locality":"город Мегион","street":"улица Строителей","house":"2","phones":[{"number":" +7 (800) 2505757","for_people":"для физ. лиц"},{"number":" +7 (800) 7007716","for_people":"для юр. лиц"}],"info_p":"https://www.uralsib.ru/office-atm/office/data/4672","workt":"Пн-Пт 09:00-17:00, перерыв 13:00-14:00","lon":"61.028737","lat":"76.112556","rubric_id":["184105398","184105406"]},{"name":"УРАЛСИБ банк Операционный офис \"Сургутский\"","address":"город Сургут, улица проспект Мира, дом 31","country":"Россия","locality":"город Сургут","street":"улица проспект Мира","house":"31","phones":[{"number":" +7 (800) 2505757","for_people":"для физ. лиц"},{"number":" +7 (800) 7007716","for_people":"для юр. лиц"}],"info_p":"https://www.uralsib.ru/office-atm/office/data/4673","workt":"Пн-Пт 09:00-18:00, без перерыва; Сб 10:00-16:00, без перерыва","lon":"61.260126","lat":"73.402132","rubric_id":["184105398","184105406"]},{"name":"УРАЛСИБ банк Операционный офис \"Нижневартовский\"","address":"город Нижневартовск, улица 60 лет Октября, дом 10-Б","country":"Россия","locality":"город Нижневартовск","street":"улица 60 лет Октября","house":"10-Б","phones":[{"number":" +7 (800) 2505757","for_people":"для физ. лиц"},{"number":" +7 (800) 7007716","for_people":"для юр. лиц"}],"info_p":"https://www.uralsib.ru/office-atm/office/data/4674","workt":"Пн-Пт 09:00-18:00, без перерыва; Сб 10:00-16:00, перерыв 13:00-13:30","lon":"60.928994","lat":"76.558525","rubric_id":["184105398","184105406"]},{"name":"УРАЛСИБ банк Операционный офис \"Надымский\"","address":"город Надым, улица Зверева, дом 10","country":"Россия","locality":"город Надым","street":"улица Зверева","house":"10","phones":[{"number":" +7 (800) 2505757","for_people":"для физ. лиц"},{"number":" +7 (800) 7007716","for_people":"для юр. лиц"}],"info_p":"https://www.uralsib.ru/office-atm/office/data/4681","workt":"Пн-Пт 09:00-17:00, перерыв 13:00-14:00","lon":"65.536434","lat":"72.521038","rubric_id":["184105398","184105406"]}]